[
  {
    "id": "0",
    "name": "Lotnisko Modlin",
    "lat": 52.44592070147,
    "lon": 20.65071673974
  },
  {
    "id": "10009",
    "name": "Korsze",
    "lat": 54.17218815958,
    "lon": 21.13651401118
  },
  {
    "id": "10025",
    "name": "Łankiejmy",
    "lat": 54.14225747014,
    "lon": 21.06948827173
  },
  {
    "id": "10033",
    "name": "Sątopy-Samulewo",
    "lat": 54.073276749,
    "lon": 21.0242308214
  },
  {
    "id": "1008",
    "name": "Świnoujście",
    "lat": 53.90470769185,
    "lon": 14.26656323212
  },
  {
    "id": "1024",
    "name": "Międzyzdroje",
    "lat": 53.92428980699,
    "lon": 14.45527677392
  },
  {
    "id": "10264",
    "name": "Tołkiny",
    "lat": 54.11757953105,
    "lon": 21.23539103266
  },
  {
    "id": "10272",
    "name": "Linkowo",
    "lat": 54.09054152149,
    "lon": 21.26541414758
  },
  {
    "id": "10280",
    "name": "Nowy Młyn",
    "lat": 54.066464533,
    "lon": 21.32757895692
  },
  {
    "id": "1040",
    "name": "Świnoujście Przytór",
    "lat": 53.89745618943,
    "lon": 14.33684509729
  },
  {
    "id": "10405",
    "name": "Kętrzyn",
    "lat": 54.07262720034,
    "lon": 21.38515338756
  },
  {
    "id": "10413",
    "name": "Martiany",
    "lat": 54.02661795548,
    "lon": 21.51664700383
  },
  {
    "id": "1057",
    "name": "Świnoujście Warszów",
    "lat": 53.90036624457,
    "lon": 14.28530277179
  },
  {
    "id": "10603",
    "name": "Szczytno",
    "lat": 53.56020424599,
    "lon": 20.99707764687
  },
  {
    "id": "10629",
    "name": "Szymany",
    "lat": 53.48692840552,
    "lon": 20.96654890895
  },
  {
    "id": "10637",
    "name": "Siódmak",
    "lat": 53.52452290193,
    "lon": 20.97143962765
  },
  {
    "id": "10645",
    "name": "Jesionowiec",
    "lat": 53.44669187808,
    "lon": 20.9958118093
  },
  {
    "id": "10652",
    "name": "Grom",
    "lat": 53.60628292414,
    "lon": 20.86202181998
  },
  {
    "id": "10728",
    "name": "Świętajno",
    "lat": 53.56275335686,
    "lon": 21.22888534737
  },
  {
    "id": "1073",
    "name": "Świnoujście Port",
    "lat": 53.90122157607,
    "lon": 14.26013897421
  },
  {
    "id": "10736",
    "name": "Olszyny",
    "lat": 53.55388104421,
    "lon": 21.10722903455
  },
  {
    "id": "10744",
    "name": "Jeruty",
    "lat": 53.5526986374,
    "lon": 21.15422245207
  },
  {
    "id": "10751",
    "name": "Kolonia",
    "lat": 53.56727025186,
    "lon": 21.27229134348
  },
  {
    "id": "10769",
    "name": "Spychowo",
    "lat": 53.59124439098,
    "lon": 21.35501355027
  },
  {
    "id": "10827",
    "name": "Ruciane-Nida",
    "lat": 53.64918966836,
    "lon": 21.56292929043
  },
  {
    "id": "10835",
    "name": "Ruciane-Nida Zachód",
    "lat": 53.64258474779,
    "lon": 21.52349285583
  },
  {
    "id": "109",
    "name": "Szczecin Port Centralny",
    "lat": 53.41307922018,
    "lon": 14.56610588998
  },
  {
    "id": "10900",
    "name": "Morąg",
    "lat": 53.9190426325,
    "lon": 19.92265326678
  },
  {
    "id": "10918",
    "name": "Zielonka Pasłęcka",
    "lat": 53.98089366426,
    "lon": 19.7010313817
  },
  {
    "id": "10926",
    "name": "Nowa Wieś Cierpkie",
    "lat": 54.0244653024,
    "lon": 19.65636163348
  },
  {
    "id": "10934",
    "name": "Pasłęk",
    "lat": 54.05549901392,
    "lon": 19.65647127013
  },
  {
    "id": "10942",
    "name": "Bogaczewo",
    "lat": 54.10014439564,
    "lon": 19.57311141869
  },
  {
    "id": "10983",
    "name": "Małdyty",
    "lat": 53.9212250891,
    "lon": 19.73545069663
  },
  {
    "id": "1107",
    "name": "Szczecin Dąbie",
    "lat": 53.39123361294,
    "lon": 14.66926219396
  },
  {
    "id": "11148",
    "name": "Dobrocin",
    "lat": 53.90999951922,
    "lon": 19.82915728892
  },
  {
    "id": "11155",
    "name": "Żabi Róg",
    "lat": 53.876204023,
    "lon": 20.01797652531
  },
  {
    "id": "11163",
    "name": "Morąg Kolonia",
    "lat": 53.90990791133,
    "lon": 19.94578067853
  },
  {
    "id": "11171",
    "name": "Kozia Góra",
    "lat": 53.85328030983,
    "lon": 20.08072941543
  },
  {
    "id": "1123",
    "name": "Szczecin Zdroje",
    "lat": 53.37882988237,
    "lon": 14.63695399909
  },
  {
    "id": "11254",
    "name": "Braniewo",
    "lat": 54.3812759417,
    "lon": 19.84198449969
  },
  {
    "id": "11288",
    "name": "Jarzębiec",
    "lat": 54.31291210058,
    "lon": 19.99321281374
  },
  {
    "id": "11296",
    "name": "Wysoka Braniewska",
    "lat": 54.27922309243,
    "lon": 20.02121507585
  },
  {
    "id": "11312",
    "name": "Pieniężno",
    "lat": 54.24012736522,
    "lon": 20.1247000587
  },
  {
    "id": "11320",
    "name": "Żugienie",
    "lat": 54.25933674965,
    "lon": 20.08806108892
  },
  {
    "id": "11338",
    "name": "Henrykowo",
    "lat": 54.17448664545,
    "lon": 20.14453767657
  },
  {
    "id": "11346",
    "name": "Orneta",
    "lat": 54.11535789582,
    "lon": 20.1504063499
  },
  {
    "id": "11494",
    "name": "Grodzie",
    "lat": 54.34525088992,
    "lon": 19.96163247943
  },
  {
    "id": "117168",
    "name": "Dzierżążno",
    "lat": 54.31520235936,
    "lon": 18.26392940475
  },
  {
    "id": "1180",
    "name": "Szczecin Załom",
    "lat": 53.42940887949,
    "lon": 14.74382367001
  },
  {
    "id": "11809",
    "name": "Ełk",
    "lat": 53.82500922001,
    "lon": 22.36246191495
  },
  {
    "id": "118257",
    "name": "Orlanka",
    "lat": 52.72696209944,
    "lon": 23.34840733331
  },
  {
    "id": "118265",
    "name": "Morze",
    "lat": 52.73040794059,
    "lon": 23.41123589682
  },
  {
    "id": "118273",
    "name": "Stare Berezowo",
    "lat": 52.7319166517,
    "lon": 23.45341023279
  },
  {
    "id": "118281",
    "name": "Chytra",
    "lat": 52.73909818208,
    "lon": 23.51503458583
  },
  {
    "id": "11833",
    "name": "Stare Juchy",
    "lat": 53.92496315876,
    "lon": 22.16922226733
  },
  {
    "id": "11841",
    "name": "Woszczele",
    "lat": 53.8599125494,
    "lon": 22.24857765272
  },
  {
    "id": "11858",
    "name": "Wydminy",
    "lat": 53.97676045014,
    "lon": 22.03271586733
  },
  {
    "id": "119206",
    "name": "Zegrze Południowe",
    "lat": 52.45230882592,
    "lon": 21.00886344373
  },
  {
    "id": "1198",
    "name": "Kliniska",
    "lat": 53.46073082018,
    "lon": 14.78396596104
  },
  {
    "id": "1214",
    "name": "Szczecin Zdunowo",
    "lat": 53.38321816404,
    "lon": 14.76353921303
  },
  {
    "id": "12229",
    "name": "Prostki",
    "lat": 53.69563443628,
    "lon": 22.43140439706
  },
  {
    "id": "12237",
    "name": "Ełk Szyba Wschód",
    "lat": 53.80114713046,
    "lon": 22.37289058286
  },
  {
    "id": "12245",
    "name": "Lipińskie Małe",
    "lat": 53.73640010911,
    "lon": 22.39746598211
  },
  {
    "id": "12252",
    "name": "Grajewo",
    "lat": 53.64989283042,
    "lon": 22.44843402862
  },
  {
    "id": "12260",
    "name": "Bajtkowo",
    "lat": 53.73714550244,
    "lon": 22.23999274094
  },
  {
    "id": "12278",
    "name": "Ełk Szyba Zachód",
    "lat": 53.80233453089,
    "lon": 22.37029543624
  },
  {
    "id": "12286",
    "name": "Nowa Wieś Ełcka",
    "lat": 53.77196898553,
    "lon": 22.32360692533
  },
  {
    "id": "12294",
    "name": "Pogorzel Wielka",
    "lat": 53.70722001377,
    "lon": 22.14986881874
  },
  {
    "id": "12328",
    "name": "Drygały",
    "lat": 53.67923597344,
    "lon": 22.10398891467
  },
  {
    "id": "12336",
    "name": "Biała Piska",
    "lat": 53.61494359299,
    "lon": 22.06528369869
  },
  {
    "id": "12344",
    "name": "Kaliszki",
    "lat": 53.62044334809,
    "lon": 22.00605501733
  },
  {
    "id": "12351",
    "name": "Stare Guty",
    "lat": 53.6140180425,
    "lon": 21.92472308797
  },
  {
    "id": "12369",
    "name": "Pisz",
    "lat": 53.63182419077,
    "lon": 21.79292007566
  },
  {
    "id": "12377",
    "name": "Szeroki Bór",
    "lat": 53.6397314807,
    "lon": 21.69952218551
  },
  {
    "id": "124876",
    "name": "Дарниця",
    "lat": 50.43172546463,
    "lon": 30.64643739581
  },
  {
    "id": "124879",
    "name": "Київ-Пасажирськи",
    "lat": 50.43996683953,
    "lon": 30.48855184436
  },
  {
    "id": "124974",
    "name": "Волочиськ",
    "lat": 49.53234964333,
    "lon": 26.20807885587
  },
  {
    "id": "124979",
    "name": "Хмельницький",
    "lat": 49.41614896337,
    "lon": 27.00958728254
  },
  {
    "id": "125013",
    "name": "Вінниця",
    "lat": 49.23923991905,
    "lon": 28.51106106699
  },
  {
    "id": "125048",
    "name": "Шепетівка",
    "lat": 50.1967716667,
    "lon": 27.0659780395
  },
  {
    "id": "125070",
    "name": "Бердичів",
    "lat": 49.88933992633,
    "lon": 28.61351608694
  },
  {
    "id": "125072",
    "name": "Козятин 1",
    "lat": 49.70497873298,
    "lon": 28.82988451838
  },
  {
    "id": "125082",
    "name": "Бiла Церква",
    "lat": 49.81216901167,
    "lon": 30.11011361539
  },
  {
    "id": "125159",
    "name": "Ковель",
    "lat": 51.22133284303,
    "lon": 24.71238254428
  },
  {
    "id": "125182",
    "name": "Рівне",
    "lat": 50.62796565491,
    "lon": 26.23932122111
  },
  {
    "id": "125200",
    "name": "Ківерці",
    "lat": 50.83040270827,
    "lon": 25.46224503636
  },
  {
    "id": "125205",
    "name": "Тернопіль",
    "lat": 49.55389256072,
    "lon": 25.60101985395
  },
  {
    "id": "125266",
    "name": "Львів-Головний",
    "lat": 49.84017591578,
    "lon": 23.99376510501
  },
  {
    "id": "125334",
    "name": "Красне",
    "lat": 49.91686691536,
    "lon": 24.61531876981
  },
  {
    "id": "125508",
    "name": "Олександрія",
    "lat": 48.67405205906,
    "lon": 33.13311337352
  },
  {
    "id": "125585",
    "name": "імені Тараса Шевченка",
    "lat": 49.20231041117,
    "lon": 31.89726948202
  },
  {
    "id": "125634",
    "name": "Кременчук",
    "lat": 49.06754706025,
    "lon": 33.42797397494
  },
  {
    "id": "125653",
    "name": "Ромодан",
    "lat": 49.99291883925,
    "lon": 33.32231639743
  },
  {
    "id": "125662",
    "name": "Гребінка",
    "lat": 50.12179568145,
    "lon": 32.43255256534
  },
  {
    "id": "125672",
    "name": "Лубни",
    "lat": 50.02044184217,
    "lon": 32.97493814886
  },
  {
    "id": "125711",
    "name": "Харків-Пасажирський",
    "lat": 49.98947692416,
    "lon": 36.20335220218
  },
  {
    "id": "125780",
    "name": "Миргород",
    "lat": 49.94924551136,
    "lon": 33.62976729333
  },
  {
    "id": "125787",
    "name": "Полтава-Київська",
    "lat": 49.60340974793,
    "lon": 34.525415892
  },
  {
    "id": "125797",
    "name": "Люботин",
    "lat": 49.94147828944,
    "lon": 35.92696666181
  },
  {
    "id": "125806",
    "name": "Дніпро-Головний",
    "lat": 48.47816324463,
    "lon": 35.01491903186
  },
  {
    "id": "125880",
    "name": "Запоріжжя-1",
    "lat": 47.79526153949,
    "lon": 35.18800734401
  },
  {
    "id": "12609",
    "name": "Giżycko",
    "lat": 54.03136915601,
    "lon": 21.77804811001
  },
  {
    "id": "12633",
    "name": "Siedliska",
    "lat": 54.00034406121,
    "lon": 21.91429061453
  },
  {
    "id": "12641",
    "name": "Sterławki Wielkie",
    "lat": 54.01513127738,
    "lon": 21.57506120865
  },
  {
    "id": "12658",
    "name": "Wilkasy Niegocin",
    "lat": 54.01961435742,
    "lon": 21.73798453613
  },
  {
    "id": "12666",
    "name": "Sterławki Małe",
    "lat": 54.01171397853,
    "lon": 21.64638429344
  },
  {
    "id": "127085",
    "name": "Baška",
    "lat": 49.65098734003,
    "lon": 18.3691888994
  },
  {
    "id": "127146",
    "name": "Dobrá u Frýdku-Místku",
    "lat": 49.6709052476,
    "lon": 18.41421782434
  },
  {
    "id": "127149",
    "name": "Dobratice-Vojkovice",
    "lat": 49.66973971136,
    "lon": 18.47295097351
  },
  {
    "id": "127160",
    "name": "Frenštát pod Radhoštěm",
    "lat": 49.54190223975,
    "lon": 18.22431742609
  },
  {
    "id": "127162",
    "name": "Frýdek-Místek",
    "lat": 49.67749066948,
    "lon": 18.35402905405
  },
  {
    "id": "127163",
    "name": "Frýdlant nad Ostravicí",
    "lat": 49.58907733184,
    "lon": 18.35440456331
  },
  {
    "id": "127165",
    "name": "Čeladná",
    "lat": 49.55289898819,
    "lon": 18.3341753456
  },
  {
    "id": "127170",
    "name": "Pržno",
    "lat": 49.61714015881,
    "lon": 18.36197912157
  },
  {
    "id": "127178",
    "name": "Břeclav",
    "lat": 48.75370602868,
    "lon": 16.89301908016
  },
  {
    "id": "127206",
    "name": "Hnojník",
    "lat": 49.67872989272,
    "lon": 18.53898345888
  },
  {
    "id": "127209",
    "name": "Střítež u Českého Těšína",
    "lat": 49.67886873929,
    "lon": 18.56927096307
  },
  {
    "id": "127212",
    "name": "Horní Tošanovice",
    "lat": 49.68132972905,
    "lon": 18.50387870729
  },
  {
    "id": "127265",
    "name": "Hranice na Moravě",
    "lat": 49.56555630789,
    "lon": 17.74178812087
  },
  {
    "id": "127295",
    "name": "Hodonín",
    "lat": 48.85605047412,
    "lon": 17.12147895813
  },
  {
    "id": "127313",
    "name": "Kunčice pod Ondřejníkem",
    "lat": 49.5349085576,
    "lon": 18.2958787626
  },
  {
    "id": "127419",
    "name": "Olomouc hlavní nádraží",
    "lat": 49.59266952402,
    "lon": 17.27842032373
  },
  {
    "id": "127420",
    "name": "Ostrava hlavní nádraží",
    "lat": 49.85137011689,
    "lon": 18.26616504192
  },
  {
    "id": "127436",
    "name": "Ostrava-Svinov",
    "lat": 49.82113048872,
    "lon": 18.21006932259
  },
  {
    "id": "127469",
    "name": "Ropice",
    "lat": 49.71249264183,
    "lon": 18.61646174848
  },
  {
    "id": "127471",
    "name": "Ropice-Zálesí",
    "lat": 49.69375773315,
    "lon": 18.59655707538
  },
  {
    "id": "127482",
    "name": "Přerov",
    "lat": 49.44669321692,
    "lon": 17.44542018771
  },
  {
    "id": "127490",
    "name": "Studénka",
    "lat": 49.70756328571,
    "lon": 18.06649624765
  },
  {
    "id": "127507",
    "name": "Suchdol nad Odrou",
    "lat": 49.64235232508,
    "lon": 17.93899475992
  },
  {
    "id": "127651",
    "name": "Zábřeh na Moravě",
    "lat": 49.87207959012,
    "lon": 16.88729661405
  },
  {
    "id": "127662",
    "name": "Otrokovice",
    "lat": 49.20287114359,
    "lon": 17.53115426302
  },
  {
    "id": "127718",
    "name": "Staré Město u Uherského Hradiště",
    "lat": 49.07631146985,
    "lon": 17.42279324949
  },
  {
    "id": "127986",
    "name": "Letohrad",
    "lat": 50.03150468731,
    "lon": 16.50756124467
  },
  {
    "id": "128002",
    "name": "Jablonné nad Orlicí",
    "lat": 50.02610961353,
    "lon": 16.59422906399
  },
  {
    "id": "128006",
    "name": "Kolín",
    "lat": 50.02535310152,
    "lon": 15.21421917915
  },
  {
    "id": "12807",
    "name": "Suwałki",
    "lat": 54.10586069177,
    "lon": 22.94531372953
  },
  {
    "id": "128071",
    "name": "Pardubice hlavní nádraží",
    "lat": 50.03169404893,
    "lon": 15.75661539495
  },
  {
    "id": "128154",
    "name": "Ústí nad Orlicí",
    "lat": 49.97130816425,
    "lon": 16.37850130498
  },
  {
    "id": "128157",
    "name": "Ústí nad Orlicí město",
    "lat": 49.96855824532,
    "lon": 16.39539385736
  },
  {
    "id": "128166",
    "name": "Česká Třebová",
    "lat": 49.89715614384,
    "lon": 16.44641653776
  },
  {
    "id": "128270",
    "name": "Liberec",
    "lat": 50.76124676405,
    "lon": 15.04594717026
  },
  {
    "id": "128274",
    "name": "Liberec-Rochlice",
    "lat": 50.747259269,
    "lon": 15.0617292881
  },
  {
    "id": "128471",
    "name": "Kořenov",
    "lat": 50.77009166699,
    "lon": 15.36584705114
  },
  {
    "id": "128481",
    "name": "Kořenov zastávka",
    "lat": 50.76259163747,
    "lon": 15.34721910954
  },
  {
    "id": "128485",
    "name": "Tanvald",
    "lat": 50.74311580603,
    "lon": 15.31090736389
  },
  {
    "id": "128488",
    "name": "Dolní Polubný",
    "lat": 50.76052514348,
    "lon": 15.32351642847
  },
  {
    "id": "128490",
    "name": "Desná",
    "lat": 50.75345460071,
    "lon": 15.30922293663
  },
  {
    "id": "128493",
    "name": "Tanvald zastávka",
    "lat": 50.73699834631,
    "lon": 15.30524253845
  },
  {
    "id": "128496",
    "name": "Smržovka dolní nádraží",
    "lat": 50.73477793853,
    "lon": 15.28064131737
  },
  {
    "id": "128502",
    "name": "Smržovka střed",
    "lat": 50.73200058307,
    "lon": 15.25454342365
  },
  {
    "id": "128506",
    "name": "Smržovka",
    "lat": 50.74024049581,
    "lon": 15.24376094341
  },
  {
    "id": "128522",
    "name": "Nová Ves nad Nisou",
    "lat": 50.72351810415,
    "lon": 15.19427418709
  },
  {
    "id": "128526",
    "name": "Lučany nad Nisou",
    "lat": 50.73950721253,
    "lon": 15.22521078587
  },
  {
    "id": "128529",
    "name": "Jablonecké Paseky",
    "lat": 50.73154559717,
    "lon": 15.19059419632
  },
  {
    "id": "128532",
    "name": "Jablonec nad Nisou",
    "lat": 50.7207603497,
    "lon": 15.16116517067
  },
  {
    "id": "128535",
    "name": "Jablonec nad Nisou zastávka",
    "lat": 50.72040725064,
    "lon": 15.18561601639
  },
  {
    "id": "128539",
    "name": "Jablonec nad Nisou dolní nádraží",
    "lat": 50.72634296056,
    "lon": 15.14922466278
  },
  {
    "id": "128543",
    "name": "Vesec u Liberce",
    "lat": 50.74350333139,
    "lon": 15.08082125187
  },
  {
    "id": "128547",
    "name": "Proseč nad Nisou",
    "lat": 50.72813815551,
    "lon": 15.1159080863
  },
  {
    "id": "128551",
    "name": "Vratislavice nad Nisou",
    "lat": 50.74012222071,
    "lon": 15.09361002445
  },
  {
    "id": "12872",
    "name": "Trakiszki",
    "lat": 54.23942758887,
    "lon": 23.20794756812
  },
  {
    "id": "129043",
    "name": "Trutnov hlavní nádraží",
    "lat": 50.56512932807,
    "lon": 15.91119915247
  },
  {
    "id": "129049",
    "name": "Trutnov střed",
    "lat": 50.57767400666,
    "lon": 15.94466507435
  },
  {
    "id": "129059",
    "name": "Praha hlavní nádraží",
    "lat": 50.0830243953,
    "lon": 14.43630337715
  },
  {
    "id": "129063",
    "name": "Libeč",
    "lat": 50.59622221397,
    "lon": 15.94616259392
  },
  {
    "id": "129083",
    "name": "Praha-Libeň",
    "lat": 50.10074856656,
    "lon": 14.50238227844
  },
  {
    "id": "129109",
    "name": "Bernartice u Trutnova",
    "lat": 50.6472427381,
    "lon": 15.95906166138
  },
  {
    "id": "129111",
    "name": "Křenov",
    "lat": 50.63832605406,
    "lon": 15.93619731549
  },
  {
    "id": "12922",
    "name": "Płociczno koło Suwałk",
    "lat": 54.0382974074,
    "lon": 22.9487626093
  },
  {
    "id": "12930",
    "name": "Szczepki",
    "lat": 53.96698504512,
    "lon": 22.98439850794
  },
  {
    "id": "12948",
    "name": "Blizna",
    "lat": 53.90637837021,
    "lon": 23.01496241505
  },
  {
    "id": "12955",
    "name": "Augustów Port",
    "lat": 53.86251706655,
    "lon": 23.00372660034
  },
  {
    "id": "12963",
    "name": "Augustów",
    "lat": 53.85269715953,
    "lon": 23.02612300308
  },
  {
    "id": "13003",
    "name": "Kostrzyn",
    "lat": 52.59137475132,
    "lon": 14.64705568111
  },
  {
    "id": "130357",
    "name": "Budapest-Nyugati",
    "lat": 47.51126595248,
    "lon": 19.05829668045
  },
  {
    "id": "130393",
    "name": "Vác",
    "lat": 47.78256768492,
    "lon": 19.13352191448
  },
  {
    "id": "130396",
    "name": "Nagymaros-Visegrád",
    "lat": 47.79108105046,
    "lon": 18.95888328552
  },
  {
    "id": "130399",
    "name": "Szob",
    "lat": 47.82100012089,
    "lon": 18.86197775602
  },
  {
    "id": "13052",
    "name": "Namyślin",
    "lat": 52.67811071791,
    "lon": 14.57051659805
  },
  {
    "id": "13078",
    "name": "Ługi Górzyckie",
    "lat": 52.51573515997,
    "lon": 14.65095718619
  },
  {
    "id": "13086",
    "name": "Górzyca",
    "lat": 52.49957659631,
    "lon": 14.657152895
  },
  {
    "id": "13094",
    "name": "Laski Lubuskie",
    "lat": 52.45980471327,
    "lon": 14.71270550109
  },
  {
    "id": "130963",
    "name": "Kúty",
    "lat": 48.66210760464,
    "lon": 17.04756528139
  },
  {
    "id": "130985",
    "name": "Bratislava hlavná stanica",
    "lat": 48.15900779451,
    "lon": 17.10647463799
  },
  {
    "id": "131012",
    "name": "Nové Zámky",
    "lat": 47.99491539046,
    "lon": 18.17450344563
  },
  {
    "id": "131023",
    "name": "Štúrovo",
    "lat": 47.79994255199,
    "lon": 18.67922544479
  },
  {
    "id": "13110",
    "name": "Radów",
    "lat": 52.43163465224,
    "lon": 14.74252808436
  },
  {
    "id": "13128",
    "name": "Kowalów",
    "lat": 52.39753255864,
    "lon": 14.7596656279
  },
  {
    "id": "13250",
    "name": "Godków",
    "lat": 52.90115645677,
    "lon": 14.4586228439
  },
  {
    "id": "13334",
    "name": "Chojna",
    "lat": 52.96358798355,
    "lon": 14.44419154429
  },
  {
    "id": "13359",
    "name": "Lisie Pole",
    "lat": 53.02214104856,
    "lon": 14.45061871164
  },
  {
    "id": "13375",
    "name": "Witnica Chojeńska",
    "lat": 52.86620910399,
    "lon": 14.45120222669
  },
  {
    "id": "13417",
    "name": "Mieszkowice",
    "lat": 52.7817920555,
    "lon": 14.48582982023
  },
  {
    "id": "13425",
    "name": "Boleszkowice",
    "lat": 52.73668160007,
    "lon": 14.51883616389
  },
  {
    "id": "13433",
    "name": "Bielin",
    "lat": 52.82239329683,
    "lon": 14.46679975131
  },
  {
    "id": "13904",
    "name": "Gorzów Wielkopolski",
    "lat": 52.72749044273,
    "lon": 15.22879814324
  },
  {
    "id": "13938",
    "name": "Gorzów Wielkopolski Zieleniec",
    "lat": 52.69972670878,
    "lon": 15.26169709566
  },
  {
    "id": "13946",
    "name": "Gorzów Wielkopolski Karnin",
    "lat": 52.68894409415,
    "lon": 15.28102240911
  },
  {
    "id": "13953",
    "name": "Gorzów Wielkopolski Zamoście",
    "lat": 52.72269033427,
    "lon": 15.23901681331
  },
  {
    "id": "13961",
    "name": "Gorzów Wielkopolski Wieprzyce",
    "lat": 52.7178313548,
    "lon": 15.18110982681
  },
  {
    "id": "140105",
    "name": "Berlin-Charlottenburg",
    "lat": 52.50436592003,
    "lon": 13.30285300133
  },
  {
    "id": "140106",
    "name": "Berlin Zoologischer Garten",
    "lat": 52.50741264133,
    "lon": 13.33254827976
  },
  {
    "id": "140168",
    "name": "Berlin Ostkreuz",
    "lat": 52.50318074601,
    "lon": 13.46921680212
  },
  {
    "id": "14019",
    "name": "Łupowo",
    "lat": 52.70079702676,
    "lon": 15.12316786061
  },
  {
    "id": "140231",
    "name": "Werbig",
    "lat": 52.56474614854,
    "lon": 14.40531312883
  },
  {
    "id": "14027",
    "name": "Bogdaniec",
    "lat": 52.6891323478,
    "lon": 15.07864072922
  },
  {
    "id": "140277",
    "name": "Berlin Mahlsdorf",
    "lat": 52.5119507679,
    "lon": 13.61079453349
  },
  {
    "id": "140282",
    "name": "Strausberg",
    "lat": 52.53210279244,
    "lon": 13.83351444125
  },
  {
    "id": "140286",
    "name": "Rehfelde",
    "lat": 52.52845430983,
    "lon": 13.92266034007
  },
  {
    "id": "140288",
    "name": "Müncheberg (Mark)",
    "lat": 52.5246358025,
    "lon": 14.10004555643
  },
  {
    "id": "140292",
    "name": "Obersdorf",
    "lat": 52.53688647939,
    "lon": 14.16762112498
  },
  {
    "id": "140293",
    "name": "Trebnitz (Mark)",
    "lat": 52.53825688029,
    "lon": 14.21687721133
  },
  {
    "id": "140294",
    "name": "Seelow-Gusow",
    "lat": 52.55931651814,
    "lon": 14.3514704597
  },
  {
    "id": "140296",
    "name": "Golzow (Oderbruch)",
    "lat": 52.5625417657,
    "lon": 14.51218842924
  },
  {
    "id": "140297",
    "name": "Gorgast",
    "lat": 52.56319396151,
    "lon": 14.55097853601
  },
  {
    "id": "140299",
    "name": "Alt Rosenthal",
    "lat": 52.55037653692,
    "lon": 14.27865921915
  },
  {
    "id": "140304",
    "name": "Herrensee",
    "lat": 52.52989186938,
    "lon": 13.88665169209
  },
  {
    "id": "14035",
    "name": "Nowiny Wielkie",
    "lat": 52.67263999176,
    "lon": 15.00270424939
  },
  {
    "id": "1404",
    "name": "Goleniów",
    "lat": 53.55909731774,
    "lon": 14.83954776098
  },
  {
    "id": "14043",
    "name": "Witnica",
    "lat": 52.66737323074,
    "lon": 14.89613557767
  },
  {
    "id": "14050",
    "name": "Kamień Mały",
    "lat": 52.64165663653,
    "lon": 14.78028438266
  },
  {
    "id": "140533",
    "name": "Berlin-Lichtenberg",
    "lat": 52.50995268751,
    "lon": 13.49629639506
  },
  {
    "id": "140581",
    "name": "Cottbus Hauptbahnhof",
    "lat": 51.75094591445,
    "lon": 14.3249298783
  },
  {
    "id": "14068",
    "name": "Dąbroszyn",
    "lat": 52.6187764275,
    "lon": 14.71219237484
  },
  {
    "id": "140685",
    "name": "Ruhland",
    "lat": 51.45528,
    "lon": 13.87
  },
  {
    "id": "140707",
    "name": "Hoyerswerda",
    "lat": 51.43278,
    "lon": 14.23114323677
  },
  {
    "id": "140727",
    "name": "Klinge",
    "lat": 51.74361127201,
    "lon": 14.51838583069
  },
  {
    "id": "140730",
    "name": "Elsterwerda",
    "lat": 51.45989714576,
    "lon": 13.51645973743
  },
  {
    "id": "1412",
    "name": "Rurka",
    "lat": 53.49379840327,
    "lon": 14.79597448303
  },
  {
    "id": "141249",
    "name": "Dresden Hauptbahnhof",
    "lat": 51.04016873202,
    "lon": 13.73240133995
  },
  {
    "id": "141285",
    "name": "Görlitz-Rauschwalde",
    "lat": 51.1491026985,
    "lon": 14.93602416931
  },
  {
    "id": "141286",
    "name": "Gersdorf (bei Görlitz)",
    "lat": 51.12521266367,
    "lon": 14.85429338161
  },
  {
    "id": "141287",
    "name": "Reichenbach (Oberlausitz)",
    "lat": 51.13558356245,
    "lon": 14.79622906746
  },
  {
    "id": "141288",
    "name": "Zoblitz",
    "lat": 51.12374467723,
    "lon": 14.75113040741
  },
  {
    "id": "141290",
    "name": "Löbau (Sachs)",
    "lat": 51.09941305041,
    "lon": 14.6717307877
  },
  {
    "id": "141291",
    "name": "Breitendorf",
    "lat": 51.13857297572,
    "lon": 14.62291411045
  },
  {
    "id": "141292",
    "name": "Pommritz",
    "lat": 51.15903803176,
    "lon": 14.57488093254
  },
  {
    "id": "141294",
    "name": "Kubschütz",
    "lat": 51.16573581189,
    "lon": 14.50970390675
  },
  {
    "id": "141295",
    "name": "Bautzen",
    "lat": 51.17315753647,
    "lon": 14.42871728836
  },
  {
    "id": "141297",
    "name": "Seitschen",
    "lat": 51.15370493958,
    "lon": 14.32521562698
  },
  {
    "id": "141298",
    "name": "Demitz-Thumitz",
    "lat": 51.14195748408,
    "lon": 14.24038518784
  },
  {
    "id": "141299",
    "name": "Bischofswerda",
    "lat": 51.12540176043,
    "lon": 14.18570766865
  },
  {
    "id": "141300",
    "name": "Weickersdorf (Sachs)",
    "lat": 51.11098660556,
    "lon": 14.151289708
  },
  {
    "id": "141301",
    "name": "Großharthau",
    "lat": 51.10218968354,
    "lon": 14.08778
  },
  {
    "id": "141371",
    "name": "Arnsdorf (bei Dresden)",
    "lat": 51.09296867383,
    "lon": 13.98194105026
  },
  {
    "id": "141388",
    "name": "Radeberg",
    "lat": 51.11163632193,
    "lon": 13.91312227249
  },
  {
    "id": "141406",
    "name": "Langebrück (Sachs)",
    "lat": 51.12685011878,
    "lon": 13.84075058399
  },
  {
    "id": "141407",
    "name": "Dresden-Klotzsche",
    "lat": 51.11466106725,
    "lon": 13.78905466501
  },
  {
    "id": "141408",
    "name": "Dresden-Industriegelände",
    "lat": 51.08735510839,
    "lon": 13.76271562698
  },
  {
    "id": "141410",
    "name": "Dresden-Neustadt",
    "lat": 51.06586371144,
    "lon": 13.74052422817
  },
  {
    "id": "141412",
    "name": "Dresden Mitte",
    "lat": 51.05609651258,
    "lon": 13.72421291534
  },
  {
    "id": "141427",
    "name": "Riesa",
    "lat": 51.30963951946,
    "lon": 13.28788728836
  },
  {
    "id": "1420",
    "name": "Białuń",
    "lat": 53.61507268414,
    "lon": 14.84094975144
  },
  {
    "id": "14308",
    "name": "Zwierzyn",
    "lat": 52.83680698734,
    "lon": 15.58457212689
  },
  {
    "id": "14324",
    "name": "Stare Kurowo",
    "lat": 52.85452117897,
    "lon": 15.67850628405
  },
  {
    "id": "14332",
    "name": "Sarbiewo",
    "lat": 52.81915615554,
    "lon": 15.54544708667
  },
  {
    "id": "14340",
    "name": "Górki Noteckie",
    "lat": 52.79337896631,
    "lon": 15.48871847369
  },
  {
    "id": "14357",
    "name": "Santok",
    "lat": 52.74328445355,
    "lon": 15.41564714626
  },
  {
    "id": "1438",
    "name": "Łoźnica",
    "lat": 53.69012162417,
    "lon": 14.86615281088
  },
  {
    "id": "14407",
    "name": "Piła Główna",
    "lat": 53.14309783834,
    "lon": 16.74507578666
  },
  {
    "id": "14431",
    "name": "Dziembówko",
    "lat": 53.07088930085,
    "lon": 16.81515059873
  },
  {
    "id": "14456",
    "name": "Piła Kalina",
    "lat": 53.10119993738,
    "lon": 16.78807308439
  },
  {
    "id": "14464",
    "name": "Kaczory",
    "lat": 53.10542543261,
    "lon": 16.88162544058
  },
  {
    "id": "14472",
    "name": "Miasteczko Krajeńskie",
    "lat": 53.09268337563,
    "lon": 17.01871771761
  },
  {
    "id": "14480",
    "name": "Białośliwie",
    "lat": 53.09782155203,
    "lon": 17.12461062121
  },
  {
    "id": "14498",
    "name": "Krostkowo",
    "lat": 53.10786880699,
    "lon": 17.20808590025
  },
  {
    "id": "14514",
    "name": "Wyrzysk Osiek",
    "lat": 53.11915408536,
    "lon": 17.29478465849
  },
  {
    "id": "14522",
    "name": "Stobno",
    "lat": 53.10883813174,
    "lon": 16.62536361632
  },
  {
    "id": "14530",
    "name": "Biała Pilska",
    "lat": 53.06117885107,
    "lon": 16.51674606778
  },
  {
    "id": "14548",
    "name": "Trzcianka",
    "lat": 53.03334950777,
    "lon": 16.46566994802
  },
  {
    "id": "146599",
    "name": "Rosenheim",
    "lat": 47.85001439968,
    "lon": 12.11921291534
  },
  {
    "id": "146659",
    "name": "München Ost",
    "lat": 48.12757161227,
    "lon": 11.60527894974
  },
  {
    "id": "146771",
    "name": "München Hauptbahnhof",
    "lat": 48.14035159445,
    "lon": 11.55837291534
  },
  {
    "id": "14704",
    "name": "Wałcz",
    "lat": 53.27510473715,
    "lon": 16.48431759469
  },
  {
    "id": "14738",
    "name": "Wałcz Raduń",
    "lat": 53.27686608822,
    "lon": 16.45771163632
  },
  {
    "id": "14746",
    "name": "Strączno",
    "lat": 53.2435948687,
    "lon": 16.36158227384
  },
  {
    "id": "14753",
    "name": "Rutwica",
    "lat": 53.22935867133,
    "lon": 16.28324906618
  },
  {
    "id": "14761",
    "name": "Tuczno Krajeńskie",
    "lat": 53.21895710594,
    "lon": 16.17519857003
  },
  {
    "id": "14779",
    "name": "Dobino Wałeckie",
    "lat": 53.22685116664,
    "lon": 16.52479028217
  },
  {
    "id": "14811",
    "name": "Szydłowo Krajeńskie",
    "lat": 53.16679307058,
    "lon": 16.60676702433
  },
  {
    "id": "148445",
    "name": "Leipzig Hauptbahnhof",
    "lat": 51.34499707342,
    "lon": 12.38146793121
  },
  {
    "id": "15008",
    "name": "Kalisz Pomorski",
    "lat": 53.27774129392,
    "lon": 15.88089584789
  },
  {
    "id": "150193",
    "name": "Bad Kleinen",
    "lat": 53.76692960947,
    "lon": 11.46671042328
  },
  {
    "id": "150194",
    "name": "Ventschow",
    "lat": 53.78717313854,
    "lon": 11.58004282209
  },
  {
    "id": "150195",
    "name": "Blankenberg (Meckl)",
    "lat": 53.77226061511,
    "lon": 11.71514516071
  },
  {
    "id": "150198",
    "name": "Bützow",
    "lat": 53.83714870434,
    "lon": 11.99809132275
  },
  {
    "id": "150200",
    "name": "Güstrow",
    "lat": 53.80079145644,
    "lon": 12.17257816931
  },
  {
    "id": "150202",
    "name": "Priemerburg",
    "lat": 53.79593464014,
    "lon": 12.22296835582
  },
  {
    "id": "150205",
    "name": "Lalendorf",
    "lat": 53.755004,
    "lon": 12.38694134855
  },
  {
    "id": "150206",
    "name": "Neu Wokern",
    "lat": 53.76000128724,
    "lon": 12.50104474603
  },
  {
    "id": "150207",
    "name": "Teterow",
    "lat": 53.76832919811,
    "lon": 12.57784630423
  },
  {
    "id": "15032",
    "name": "Biały Zdrój Południowy",
    "lat": 53.25652117356,
    "lon": 15.95444365389
  },
  {
    "id": "150439",
    "name": "Schwerin Hauptbahnhof",
    "lat": 53.63471643392,
    "lon": 11.40751844907
  },
  {
    "id": "15057",
    "name": "Krępa Krajeńska",
    "lat": 53.22769994741,
    "lon": 16.05794597165
  },
  {
    "id": "150594",
    "name": "Neubrandenburg",
    "lat": 53.56187560709,
    "lon": 13.2615830172
  },
  {
    "id": "150616",
    "name": "Mölln (Meckl)",
    "lat": 53.58582117679,
    "lon": 13.08463038161
  },
  {
    "id": "150620",
    "name": "Reuterstadt Stavenhagen",
    "lat": 53.70684914369,
    "lon": 12.9140497963
  },
  {
    "id": "150622",
    "name": "Malchin",
    "lat": 53.74332182402,
    "lon": 12.76148088228
  },
  {
    "id": "15065",
    "name": "Jeziorki Wałeckie",
    "lat": 53.22557788195,
    "lon": 16.10790938348
  },
  {
    "id": "150692",
    "name": "Angermünde",
    "lat": 53.015195182,
    "lon": 13.99648438161
  },
  {
    "id": "150716",
    "name": "Passow (Uckermark)",
    "lat": 53.14906876579,
    "lon": 14.10185279762
  },
  {
    "id": "150717",
    "name": "Schönow (Uckermark)",
    "lat": 53.18506172334,
    "lon": 14.15436117064
  },
  {
    "id": "150718",
    "name": "Casekow",
    "lat": 53.21358187607,
    "lon": 14.20844985648
  },
  {
    "id": "150719",
    "name": "Petershagen (Uckermark)",
    "lat": 53.24012467884,
    "lon": 14.25285325529
  },
  {
    "id": "150748",
    "name": "Pasewalk",
    "lat": 53.51532862055,
    "lon": 13.9898369008
  },
  {
    "id": "150750",
    "name": "Pasewalk Ost",
    "lat": 53.50957033782,
    "lon": 14.00924903705
  },
  {
    "id": "150751",
    "name": "Zerrenthin",
    "lat": 53.4995495459,
    "lon": 14.09756240608
  },
  {
    "id": "150760",
    "name": "Oertzenhof",
    "lat": 53.51808618952,
    "lon": 13.57288296561
  },
  {
    "id": "150761",
    "name": "Neetzka",
    "lat": 53.53352756506,
    "lon": 13.50078972024
  },
  {
    "id": "150763",
    "name": "Sponholz",
    "lat": 53.56387470945,
    "lon": 13.36690525529
  },
  {
    "id": "150780",
    "name": "Blumenhagen",
    "lat": 53.5283627351,
    "lon": 13.87250338889
  },
  {
    "id": "15131",
    "name": "Prostynia",
    "lat": 53.30522135217,
    "lon": 15.77385187542
  },
  {
    "id": "15149",
    "name": "Cybowo",
    "lat": 53.29324570585,
    "lon": 15.81649924634
  },
  {
    "id": "15156",
    "name": "Żółwino",
    "lat": 53.28892221709,
    "lon": 15.6903771862
  },
  {
    "id": "15354",
    "name": "Złotów",
    "lat": 53.35922537361,
    "lon": 17.05310625693
  },
  {
    "id": "15511",
    "name": "Zakrzewo Złotowskie",
    "lat": 53.41649174474,
    "lon": 17.14087038914
  },
  {
    "id": "15529",
    "name": "Lipka Krajeńska",
    "lat": 53.49734059016,
    "lon": 17.25740911939
  },
  {
    "id": "15537",
    "name": "Krajenka",
    "lat": 53.28905096242,
    "lon": 16.99163627891
  },
  {
    "id": "15545",
    "name": "Dolnik",
    "lat": 53.25559721374,
    "lon": 16.92982306457
  },
  {
    "id": "15552",
    "name": "Skórka",
    "lat": 53.21893814639,
    "lon": 16.8706869151
  },
  {
    "id": "15560",
    "name": "Piła Podlasie",
    "lat": 53.16294643666,
    "lon": 16.77709712655
  },
  {
    "id": "15586",
    "name": "Brzeźno Człuchowskie",
    "lat": 53.67086707644,
    "lon": 17.48184483073
  },
  {
    "id": "155861",
    "name": "Wien Westbahnhof",
    "lat": 48.19673975636,
    "lon": 16.33732728836
  },
  {
    "id": "155886",
    "name": "St. Pölten Hauptbahnhof",
    "lat": 48.20831212511,
    "lon": 15.62466635582
  },
  {
    "id": "155921",
    "name": "Linz Hauptbahnhof",
    "lat": 48.29039064673,
    "lon": 14.2920697963
  },
  {
    "id": "155936",
    "name": "Attnang-Puchheim",
    "lat": 48.01260774658,
    "lon": 13.72070125397
  },
  {
    "id": "15594",
    "name": "Człuchów",
    "lat": 53.65763356828,
    "lon": 17.37112539991
  },
  {
    "id": "155955",
    "name": "Salzburg Hauptbahnhof",
    "lat": 47.8128366455,
    "lon": 13.04568516071
  },
  {
    "id": "1560",
    "name": "Wysoka Kamieńska",
    "lat": 53.82558867231,
    "lon": 14.83212091762
  },
  {
    "id": "15602",
    "name": "Chojnice",
    "lat": 53.68889583547,
    "lon": 17.57791578233
  },
  {
    "id": "15610",
    "name": "Powałki",
    "lat": 53.74337797716,
    "lon": 17.5997675852
  },
  {
    "id": "15644",
    "name": "Męcikał",
    "lat": 53.83233576885,
    "lon": 17.67117091705
  },
  {
    "id": "15651",
    "name": "Żabno koło Chojnic",
    "lat": 53.85447295276,
    "lon": 17.70720421751
  },
  {
    "id": "15669",
    "name": "Brusy",
    "lat": 53.88229192363,
    "lon": 17.72793107559
  },
  {
    "id": "15677",
    "name": "Lubnia",
    "lat": 53.93553688285,
    "lon": 17.74229262611
  },
  {
    "id": "15693",
    "name": "Racławki",
    "lat": 53.66800619837,
    "lon": 17.6541697963
  },
  {
    "id": "157114",
    "name": "Wien Meidling",
    "lat": 48.17459024816,
    "lon": 16.33427235847
  },
  {
    "id": "157163",
    "name": "Bruck an der Mur",
    "lat": 47.41408965448,
    "lon": 15.27931661839
  },
  {
    "id": "157172",
    "name": "Graz Hauptbahnhof",
    "lat": 47.07278264776,
    "lon": 15.41636854233
  },
  {
    "id": "15727",
    "name": "Silno",
    "lat": 53.64426536085,
    "lon": 17.69326271164
  },
  {
    "id": "15735",
    "name": "Piastoszyn",
    "lat": 53.62106911416,
    "lon": 17.72964320503
  },
  {
    "id": "15743",
    "name": "Żalno",
    "lat": 53.5981164038,
    "lon": 17.75897125397
  },
  {
    "id": "15750",
    "name": "Tuchola",
    "lat": 53.5838779141,
    "lon": 17.85998393387
  },
  {
    "id": "15768",
    "name": "Cekcyn",
    "lat": 53.57623259468,
    "lon": 18.02795040741
  },
  {
    "id": "1578",
    "name": "Parłówko",
    "lat": 53.84564080353,
    "lon": 14.74950635926
  },
  {
    "id": "1586",
    "name": "Troszyn",
    "lat": 53.84417894215,
    "lon": 14.71740965077
  },
  {
    "id": "15875",
    "name": "Wierzchowo Człuchowskie",
    "lat": 53.61804777683,
    "lon": 17.44762628532
  },
  {
    "id": "15883",
    "name": "Moszczenica Pomorska",
    "lat": 53.6423905808,
    "lon": 17.48885638013
  },
  {
    "id": "15891",
    "name": "Bukowo Człuchowskie",
    "lat": 53.57356636298,
    "lon": 17.37246948158
  },
  {
    "id": "1610",
    "name": "Warnowo",
    "lat": 53.92837728222,
    "lon": 14.53557610424
  },
  {
    "id": "16139",
    "name": "Rogoźno Wielkopolskie",
    "lat": 52.75438614339,
    "lon": 16.97174572074
  },
  {
    "id": "16147",
    "name": "Tarnowo Rogozińskie",
    "lat": 52.80389195646,
    "lon": 16.97523618095
  },
  {
    "id": "16154",
    "name": "Sokołowo Budzyńskie",
    "lat": 52.83825318225,
    "lon": 16.96926875192
  },
  {
    "id": "16162",
    "name": "Budzyń",
    "lat": 52.89416520031,
    "lon": 16.96601673596
  },
  {
    "id": "16170",
    "name": "Ostrówki koło Chodzieży",
    "lat": 52.93352292895,
    "lon": 16.92655981234
  },
  {
    "id": "16188",
    "name": "Chodzież",
    "lat": 52.99399610345,
    "lon": 16.90955846355
  },
  {
    "id": "16196",
    "name": "Milcz",
    "lat": 53.04194847311,
    "lon": 16.85783834081
  },
  {
    "id": "1628",
    "name": "Ładzin",
    "lat": 53.91089458144,
    "lon": 14.5625739797
  },
  {
    "id": "1636",
    "name": "Mokrzyca Wielka",
    "lat": 53.87447082218,
    "lon": 14.58041148287
  },
  {
    "id": "16402",
    "name": "Jastrowie",
    "lat": 53.40813914877,
    "lon": 16.79827740168
  },
  {
    "id": "16428",
    "name": "Ptusza",
    "lat": 53.36543594295,
    "lon": 16.78402766476
  },
  {
    "id": "16436",
    "name": "Płytnica",
    "lat": 53.29606843724,
    "lon": 16.75083666351
  },
  {
    "id": "1644",
    "name": "Wolin",
    "lat": 53.84869452264,
    "lon": 14.60973776241
  },
  {
    "id": "16444",
    "name": "Stara Łubianka",
    "lat": 53.23189096919,
    "lon": 16.70505172427
  },
  {
    "id": "16501",
    "name": "Maksymilianowo",
    "lat": 53.2140410735,
    "lon": 18.02921568594
  },
  {
    "id": "1651",
    "name": "Kamień Pomorski",
    "lat": 53.96616399426,
    "lon": 14.77421193812
  },
  {
    "id": "16527",
    "name": "Stronno",
    "lat": 53.28582469317,
    "lon": 18.0591990086
  },
  {
    "id": "16535",
    "name": "Wudzyn",
    "lat": 53.32258021109,
    "lon": 18.07573583069
  },
  {
    "id": "16543",
    "name": "Serock",
    "lat": 53.36105798675,
    "lon": 18.08974364418
  },
  {
    "id": "16550",
    "name": "Lubania-Lipiny",
    "lat": 53.38872766258,
    "lon": 18.09701026257
  },
  {
    "id": "16568",
    "name": "Świekatowo",
    "lat": 53.41700245185,
    "lon": 18.10513463558
  },
  {
    "id": "16576",
    "name": "Lipienica",
    "lat": 53.44655261955,
    "lon": 18.11243072884
  },
  {
    "id": "16584",
    "name": "Błądzim",
    "lat": 53.47591229256,
    "lon": 18.11514
  },
  {
    "id": "16592",
    "name": "Wierzchucin",
    "lat": 53.54824597328,
    "lon": 18.11246126622
  },
  {
    "id": "16618",
    "name": "Wierzchucin Stary",
    "lat": 53.55710373162,
    "lon": 18.09088740608
  },
  {
    "id": "16626",
    "name": "Zielonka Pomorska",
    "lat": 53.57746733084,
    "lon": 18.10923
  },
  {
    "id": "16634",
    "name": "Małe Gacno",
    "lat": 53.60970172266,
    "lon": 18.10952781349
  },
  {
    "id": "16642",
    "name": "Zarośle",
    "lat": 53.6643296086,
    "lon": 18.11739
  },
  {
    "id": "16659",
    "name": "Rosochatka",
    "lat": 53.70531379034,
    "lon": 18.11465463558
  },
  {
    "id": "16667",
    "name": "Lipowa Tucholska",
    "lat": 53.75362471078,
    "lon": 18.10883635582
  },
  {
    "id": "16691",
    "name": "Kotomierz",
    "lat": 53.28399483874,
    "lon": 18.12035682666
  },
  {
    "id": "16717",
    "name": "Bydgoszcz Wschód",
    "lat": 53.12792718815,
    "lon": 18.08195121957
  },
  {
    "id": "16725",
    "name": "Bydgoszcz Bielawy",
    "lat": 53.13172228523,
    "lon": 18.05393881327
  },
  {
    "id": "16741",
    "name": "Bydgoszcz Brdyujście",
    "lat": 53.13364988531,
    "lon": 18.11156740608
  },
  {
    "id": "16758",
    "name": "Bydgoszcz Politechnika",
    "lat": 53.14073113928,
    "lon": 18.13698530556
  },
  {
    "id": "1677",
    "name": "Jarszewo",
    "lat": 53.92980420363,
    "lon": 14.79991294268
  },
  {
    "id": "16782",
    "name": "Bydgoszcz Łęgnowo",
    "lat": 53.10760214942,
    "lon": 18.11293766861
  },
  {
    "id": "1685",
    "name": "Górki Pomorskie",
    "lat": 53.89826346481,
    "lon": 14.82433582213
  },
  {
    "id": "16907",
    "name": "Terespol Pomorski",
    "lat": 53.40965319222,
    "lon": 18.35191214257
  },
  {
    "id": "17079",
    "name": "Parlin",
    "lat": 53.37073988322,
    "lon": 18.26951898085
  },
  {
    "id": "17087",
    "name": "Pruszcz Pomorski",
    "lat": 53.33391535213,
    "lon": 18.19821409961
  },
  {
    "id": "1719",
    "name": "Rokita",
    "lat": 53.76638397519,
    "lon": 14.85497651762
  },
  {
    "id": "17202",
    "name": "Laskowice Pomorskie",
    "lat": 53.49127459736,
    "lon": 18.45632827308
  },
  {
    "id": "17210",
    "name": "Warlubie",
    "lat": 53.58839480747,
    "lon": 18.62266283095
  },
  {
    "id": "17228",
    "name": "Twarda Góra",
    "lat": 53.68264240826,
    "lon": 18.67160417934
  },
  {
    "id": "17269",
    "name": "Czersk Świecki",
    "lat": 53.55137824414,
    "lon": 18.46773125397
  },
  {
    "id": "1727",
    "name": "Stawno",
    "lat": 53.86692573501,
    "lon": 14.82783994619
  },
  {
    "id": "17285",
    "name": "Dąbrowy",
    "lat": 53.51731520724,
    "lon": 18.48968713939
  },
  {
    "id": "17293",
    "name": "Kwiatki",
    "lat": 53.57835369961,
    "lon": 18.42160463558
  },
  {
    "id": "17319",
    "name": "Osie",
    "lat": 53.59362183829,
    "lon": 18.34754906746
  },
  {
    "id": "17327",
    "name": "Tleń",
    "lat": 53.61432182269,
    "lon": 18.26656833862
  },
  {
    "id": "17335",
    "name": "Łążek",
    "lat": 53.6405585891,
    "lon": 18.21535781349
  },
  {
    "id": "17343",
    "name": "Śliwiczki",
    "lat": 53.68713917161,
    "lon": 18.19296072884
  },
  {
    "id": "17350",
    "name": "Śliwice",
    "lat": 53.71312331631,
    "lon": 18.18218728836
  },
  {
    "id": "17368",
    "name": "Laski Tucholskie",
    "lat": 53.66637581534,
    "lon": 18.20793708466
  },
  {
    "id": "17434",
    "name": "Jeżewo",
    "lat": 53.50739287657,
    "lon": 18.48922311187
  },
  {
    "id": "17442",
    "name": "Dubielno",
    "lat": 53.50874874796,
    "lon": 18.55661628485
  },
  {
    "id": "17459",
    "name": "Grupa",
    "lat": 53.5039376174,
    "lon": 18.62919687152
  },
  {
    "id": "17467",
    "name": "Dolna Grupa",
    "lat": 53.49876536892,
    "lon": 18.67723523498
  },
  {
    "id": "17509",
    "name": "Kościerzyna",
    "lat": 54.1205684094,
    "lon": 17.99476023801
  },
  {
    "id": "17582",
    "name": "Łubiana",
    "lat": 54.11478342664,
    "lon": 17.8665775581
  },
  {
    "id": "17590",
    "name": "Garczyn",
    "lat": 54.1237423648,
    "lon": 17.91107850342
  },
  {
    "id": "17608",
    "name": "Lipusz",
    "lat": 54.09680547844,
    "lon": 17.78035044907
  },
  {
    "id": "17616",
    "name": "Lipuska Huta",
    "lat": 54.07022899545,
    "lon": 17.76734018083
  },
  {
    "id": "17624",
    "name": "Kalisz Kaszubski",
    "lat": 54.04509654868,
    "lon": 17.78607937416
  },
  {
    "id": "17632",
    "name": "Dziemiany Kaszubskie",
    "lat": 54.01134622646,
    "lon": 17.77521604984
  },
  {
    "id": "17640",
    "name": "Raduń",
    "lat": 53.96932714021,
    "lon": 17.77844102848
  },
  {
    "id": "17731",
    "name": "Skorzewo",
    "lat": 54.16523726929,
    "lon": 17.9809645666
  },
  {
    "id": "17749",
    "name": "Gołubie Kaszubskie",
    "lat": 54.21246011585,
    "lon": 18.03672946025
  },
  {
    "id": "17756",
    "name": "Krzeszna",
    "lat": 54.23561452305,
    "lon": 18.08878756736
  },
  {
    "id": "17764",
    "name": "Wieżyca",
    "lat": 54.23452651599,
    "lon": 18.12777765757
  },
  {
    "id": "17772",
    "name": "Sławki",
    "lat": 54.25725182006,
    "lon": 18.17622188136
  },
  {
    "id": "17780",
    "name": "Somonino",
    "lat": 54.26991503847,
    "lon": 18.19295567982
  },
  {
    "id": "177923",
    "name": "Siedlce Wschodnie",
    "lat": 52.14431438014,
    "lon": 22.29785462698
  },
  {
    "id": "177959",
    "name": "Łódź Arturówek",
    "lat": 51.8155197341,
    "lon": 19.45645451277
  },
  {
    "id": "177961",
    "name": "Łódź Stoki",
    "lat": 51.77667292425,
    "lon": 19.51035886735
  },
  {
    "id": "177962",
    "name": "Łódź Marysin",
    "lat": 51.80005668179,
    "lon": 19.48650330037
  },
  {
    "id": "177968",
    "name": "Łódź Olechów Wiadukt",
    "lat": 51.72367619399,
    "lon": 19.54348161436
  },
  {
    "id": "177969",
    "name": "Łódź Olechów Wschód",
    "lat": 51.72975345469,
    "lon": 19.59443912482
  },
  {
    "id": "17798",
    "name": "Kiełpino Kartuskie",
    "lat": 54.28723277738,
    "lon": 18.23151458891
  },
  {
    "id": "177980",
    "name": "Łódź Andrzejów Szosa",
    "lat": 51.74155952443,
    "lon": 19.61292961818
  },
  {
    "id": "177993",
    "name": "Radzice",
    "lat": 51.46668104587,
    "lon": 20.39713739276
  },
  {
    "id": "178019",
    "name": "Witowo",
    "lat": 52.63963520548,
    "lon": 23.4851332601
  },
  {
    "id": "178068",
    "name": "Barwałd Średni",
    "lat": 49.87235435702,
    "lon": 19.59824251759
  },
  {
    "id": "178077",
    "name": "Podolany",
    "lat": 49.89819236475,
    "lon": 19.75341793491
  },
  {
    "id": "178079",
    "name": "Dębica Wschodnia",
    "lat": 50.06242168658,
    "lon": 21.44851629366
  },
  {
    "id": "178108",
    "name": "Leźno",
    "lat": 54.34763352884,
    "lon": 18.45924674928
  },
  {
    "id": "178111",
    "name": "Brzezie",
    "lat": 52.69628600796,
    "lon": 18.96499053468
  },
  {
    "id": "178137",
    "name": "Olsztyn Likusy",
    "lat": 53.78965818794,
    "lon": 20.44487273728
  },
  {
    "id": "178222",
    "name": "Brzeszcze",
    "lat": 49.99578461121,
    "lon": 19.15458797872
  },
  {
    "id": "178226",
    "name": "Słone",
    "lat": 51.92880304024,
    "lon": 15.39015590608
  },
  {
    "id": "178278",
    "name": "Rajcza Centrum",
    "lat": 49.50669043013,
    "lon": 19.10026251733
  },
  {
    "id": "178279",
    "name": "Cięcina Dolna",
    "lat": 49.62152120817,
    "lon": 19.15203827976
  },
  {
    "id": "178290",
    "name": "Bielawa Centralna",
    "lat": 50.69282746885,
    "lon": 16.62081250793
  },
  {
    "id": "178345",
    "name": "Szklarska Poręba Huta",
    "lat": 50.82660495542,
    "lon": 15.49694469444
  },
  {
    "id": "178392",
    "name": "Hurko",
    "lat": 49.78526658903,
    "lon": 22.86267933003
  },
  {
    "id": "178406",
    "name": "Kraków Nowa Huta",
    "lat": 50.09047339955,
    "lon": 20.1288400172
  },
  {
    "id": "178452",
    "name": "Opole Zachodnie",
    "lat": 50.66084320994,
    "lon": 17.89841794076
  },
  {
    "id": "178473",
    "name": "Kłokowa",
    "lat": 49.95329886183,
    "lon": 20.95726657367
  },
  {
    "id": "178476",
    "name": "Żurawica Rozrządowa",
    "lat": 49.83246942889,
    "lon": 22.83733470128
  },
  {
    "id": "17848",
    "name": "Borkowo",
    "lat": 54.33337014879,
    "lon": 18.33346813902
  },
  {
    "id": "17855",
    "name": "Żukowo Wschodnie",
    "lat": 54.34849600561,
    "lon": 18.37314270622
  },
  {
    "id": "178587",
    "name": "Czyżowice",
    "lat": 49.97420639822,
    "lon": 18.42581309193
  },
  {
    "id": "178588",
    "name": "Poręba",
    "lat": 50.48392391678,
    "lon": 19.3321072948
  },
  {
    "id": "178592",
    "name": "Czerwionka Dębieńsko",
    "lat": 50.15684,
    "lon": 18.66369530556
  },
  {
    "id": "17863",
    "name": "Pępowo Kartuskie",
    "lat": 54.3668619273,
    "lon": 18.40163296934
  },
  {
    "id": "178633",
    "name": "Chotomów",
    "lat": 52.4156838428,
    "lon": 20.88478693254
  },
  {
    "id": "178637",
    "name": "Dobroń",
    "lat": 51.62960816031,
    "lon": 19.2416131645
  },
  {
    "id": "178639",
    "name": "Kolumna",
    "lat": 51.61481795902,
    "lon": 19.19568764724
  },
  {
    "id": "178662",
    "name": "Wrocław Brochów",
    "lat": 51.06436746475,
    "lon": 17.08460021052
  },
  {
    "id": "178685",
    "name": "Spała",
    "lat": 51.55218309853,
    "lon": 20.13521166138
  },
  {
    "id": "17871",
    "name": "Rębiechowo",
    "lat": 54.38869046123,
    "lon": 18.42161793254
  },
  {
    "id": "178829",
    "name": "Gdynia Cisowa",
    "lat": 54.55003024337,
    "lon": 18.44648743667
  },
  {
    "id": "178885",
    "name": "Jezierzany",
    "lat": 51.23572938863,
    "lon": 16.09746081713
  },
  {
    "id": "178887",
    "name": "Dąbrowa Oleśnicka",
    "lat": 51.23003094297,
    "lon": 17.3688819079
  },
  {
    "id": "178892",
    "name": "Koźlice",
    "lat": 51.45097800898,
    "lon": 16.23290466501
  },
  {
    "id": "178896",
    "name": "Ludwikowice Kłodzkie",
    "lat": 50.6194623503,
    "lon": 16.48149306019
  },
  {
    "id": "179080",
    "name": "Łuków Zapowiednik",
    "lat": 51.93202696493,
    "lon": 22.41436825201
  },
  {
    "id": "179081",
    "name": "Nowe Dębe Wielkie",
    "lat": 52.19339671162,
    "lon": 21.44009152513
  },
  {
    "id": "179200",
    "name": "Mockava",
    "lat": 54.32812093551,
    "lon": 23.35573813462
  },
  {
    "id": "179210",
    "name": "Forst (Lausitz)",
    "lat": 51.73888432313,
    "lon": 14.63714790204
  },
  {
    "id": "179212",
    "name": "Frankfurt (Oder)",
    "lat": 52.33643454168,
    "lon": 14.54657617299
  },
  {
    "id": "179213",
    "name": "Guben",
    "lat": 51.95821565204,
    "lon": 14.70663517445
  },
  {
    "id": "179214",
    "name": "Küstrien-Kietz",
    "lat": 52.56850756147,
    "lon": 14.60772793185
  },
  {
    "id": "179216",
    "name": "Görlitz",
    "lat": 51.14664260811,
    "lon": 14.97892085193
  },
  {
    "id": "179217",
    "name": "Tantow",
    "lat": 53.27047736065,
    "lon": 14.34939004471
  },
  {
    "id": "179218",
    "name": "Grambow",
    "lat": 53.41727731155,
    "lon": 14.347177496
  },
  {
    "id": "179221",
    "name": "Petrovice u Karviné",
    "lat": 49.89406074761,
    "lon": 18.55008243442
  },
  {
    "id": "179223",
    "name": "Bohumín",
    "lat": 49.90081976766,
    "lon": 18.35969923854
  },
  {
    "id": "179225",
    "name": "Český Těšín",
    "lat": 49.74319815511,
    "lon": 18.62240568584
  },
  {
    "id": "179228",
    "name": "Lichkov",
    "lat": 50.09723178982,
    "lon": 16.65857254922
  },
  {
    "id": "179234",
    "name": "Královec",
    "lat": 50.6729252236,
    "lon": 15.97039860119
  },
  {
    "id": "179240",
    "name": "Basznia",
    "lat": 50.17861368458,
    "lon": 23.24903665057
  },
  {
    "id": "179270",
    "name": "Hirschfelde",
    "lat": 50.94341661995,
    "lon": 14.89106434359
  },
  {
    "id": "179271",
    "name": "Hagenwerder",
    "lat": 51.07022505624,
    "lon": 14.96022854233
  },
  {
    "id": "179282",
    "name": "Skalité",
    "lat": 49.49816832447,
    "lon": 18.89083128109
  },
  {
    "id": "18002",
    "name": "Kartuzy",
    "lat": 54.33401066344,
    "lon": 18.2060686118
  },
  {
    "id": "18051",
    "name": "Żukowo Zachodnie",
    "lat": 54.33339190537,
    "lon": 18.34904014528
  },
  {
    "id": "18200",
    "name": "Nakło nad Notecią",
    "lat": 53.142570647,
    "lon": 17.60715211531
  },
  {
    "id": "18234",
    "name": "Samostrzel",
    "lat": 53.12775103674,
    "lon": 17.43407235498
  },
  {
    "id": "18242",
    "name": "Anieliny",
    "lat": 53.1290913408,
    "lon": 17.48641663311
  },
  {
    "id": "18259",
    "name": "Jadwiżyn",
    "lat": 53.12390562935,
    "lon": 17.37193483541
  },
  {
    "id": "18374",
    "name": "Bydgoszcz Leśna",
    "lat": 53.14351512249,
    "lon": 18.03218214594
  },
  {
    "id": "18408",
    "name": "Bydgoszcz Główna",
    "lat": 53.13528294461,
    "lon": 17.99163586184
  },
  {
    "id": "18432",
    "name": "Rynkowo Wiadukt",
    "lat": 53.15177134005,
    "lon": 18.00540652287
  },
  {
    "id": "18499",
    "name": "Zielonczyn",
    "lat": 53.15100116861,
    "lon": 17.80741598266
  },
  {
    "id": "18515",
    "name": "Bydgoszcz Zachód",
    "lat": 53.13588000919,
    "lon": 17.94945872171
  },
  {
    "id": "18523",
    "name": "Bydgoszcz Osowa Góra",
    "lat": 53.14816837894,
    "lon": 17.91214337819
  },
  {
    "id": "18531",
    "name": "Pawłówek",
    "lat": 53.15220031319,
    "lon": 17.85637761644
  },
  {
    "id": "18549",
    "name": "Ślesin",
    "lat": 53.15608625702,
    "lon": 17.70064903338
  },
  {
    "id": "18564",
    "name": "Trzciniec",
    "lat": 53.08560782546,
    "lon": 17.94818045332
  },
  {
    "id": "18572",
    "name": "Brzoza Bydgoska",
    "lat": 53.02744122739,
    "lon": 18.02037193442
  },
  {
    "id": "18580",
    "name": "Bydgoszcz Fordon",
    "lat": 53.14646582746,
    "lon": 18.15762647123
  },
  {
    "id": "1859",
    "name": "Nowogard",
    "lat": 53.66611406458,
    "lon": 15.12096218901
  },
  {
    "id": "18598",
    "name": "Ostromecko",
    "lat": 53.14378546113,
    "lon": 18.21442667725
  },
  {
    "id": "18614",
    "name": "Dąbrowa Chełmińska",
    "lat": 53.17506234391,
    "lon": 18.2816980172
  },
  {
    "id": "18622",
    "name": "Gzin",
    "lat": 53.19201464589,
    "lon": 18.33172588955
  },
  {
    "id": "1867",
    "name": "Wyszomierz",
    "lat": 53.62601863881,
    "lon": 15.06367927789
  },
  {
    "id": "18705",
    "name": "Inowrocław",
    "lat": 52.8054428257,
    "lon": 18.24415940463
  },
  {
    "id": "1875",
    "name": "Osina",
    "lat": 53.60880680993,
    "lon": 15.01241935616
  },
  {
    "id": "18770",
    "name": "Więcławice",
    "lat": 52.84113111085,
    "lon": 18.30442923187
  },
  {
    "id": "18788",
    "name": "Wierzchosławice",
    "lat": 52.86819151502,
    "lon": 18.35787899427
  },
  {
    "id": "18796",
    "name": "Gniewkowo",
    "lat": 52.88804590716,
    "lon": 18.40383843265
  },
  {
    "id": "18812",
    "name": "Suchatówka",
    "lat": 52.91033232961,
    "lon": 18.47993400346
  },
  {
    "id": "1883",
    "name": "Mosty",
    "lat": 53.57438318093,
    "lon": 14.94052722936
  },
  {
    "id": "18838",
    "name": "Inowrocław Rąbinek",
    "lat": 52.76926334759,
    "lon": 18.24369370401
  },
  {
    "id": "190012",
    "name": "Geniusze",
    "lat": 53.38232133906,
    "lon": 23.43553435143
  },
  {
    "id": "190033",
    "name": "Skalité-Serafínov",
    "lat": 49.50155729164,
    "lon": 18.96396997288
  },
  {
    "id": "190034",
    "name": "Skalité-Kudlov",
    "lat": 49.49886651601,
    "lon": 18.93579661839
  },
  {
    "id": "190035",
    "name": "Skalité pod Poľanou",
    "lat": 49.49575140542,
    "lon": 18.91596054764
  },
  {
    "id": "190042",
    "name": "Рава-Руська",
    "lat": 50.23284643759,
    "lon": 23.63707422674
  },
  {
    "id": "19034",
    "name": "Jaksice",
    "lat": 52.85601213392,
    "lon": 18.19931331535
  },
  {
    "id": "19042",
    "name": "Złotniki Kujawskie",
    "lat": 52.90345301174,
    "lon": 18.14756393376
  },
  {
    "id": "19059",
    "name": "Nowa Wieś Wielka",
    "lat": 52.96857172578,
    "lon": 18.09670252468
  },
  {
    "id": "19075",
    "name": "Chmielniki Bydgoskie",
    "lat": 53.00161577503,
    "lon": 18.05013670189
  },
  {
    "id": "19091",
    "name": "Janikowo",
    "lat": 52.74898255909,
    "lon": 18.11618383708
  },
  {
    "id": "19125",
    "name": "Kołodziejewo",
    "lat": 52.71297787963,
    "lon": 18.03507027071
  },
  {
    "id": "19174",
    "name": "Babiak",
    "lat": 52.35331125446,
    "lon": 18.67035268664
  },
  {
    "id": "19190",
    "name": "Piotrków Kujawski",
    "lat": 52.53779355906,
    "lon": 18.51947306514
  },
  {
    "id": "19406",
    "name": "Zduńska Wola Karsznice",
    "lat": 51.58911622285,
    "lon": 18.99462102771
  },
  {
    "id": "19414",
    "name": "Zduńska Wola Południowa",
    "lat": 51.58010318117,
    "lon": 19.00567172885
  },
  {
    "id": "19430",
    "name": "Zduńska Wola",
    "lat": 51.61127947075,
    "lon": 18.94675425261
  },
  {
    "id": "19471",
    "name": "Męcka Wola",
    "lat": 51.60910272599,
    "lon": 18.84686260735
  },
  {
    "id": "19489",
    "name": "Sieradz",
    "lat": 51.59775671857,
    "lon": 18.71469214251
  },
  {
    "id": "19505",
    "name": "Sieradz Męka",
    "lat": 51.61513716082,
    "lon": 18.77681534113
  },
  {
    "id": "19513",
    "name": "Sieradz Warta",
    "lat": 51.60287558176,
    "lon": 18.73002291157
  },
  {
    "id": "19547",
    "name": "Kozuby",
    "lat": 51.49411359904,
    "lon": 19.02314835974
  },
  {
    "id": "19554",
    "name": "Siedlce Łaskie",
    "lat": 51.45697522461,
    "lon": 19.01547788501
  },
  {
    "id": "19562",
    "name": "Chociw Łaski",
    "lat": 51.40590548128,
    "lon": 18.98266910433
  },
  {
    "id": "19570",
    "name": "Rusiec Łódzki",
    "lat": 51.31627999193,
    "lon": 18.96921333555
  },
  {
    "id": "1958",
    "name": "Płoty",
    "lat": 53.8082099732,
    "lon": 15.26130313527
  },
  {
    "id": "19588",
    "name": "Huta",
    "lat": 51.2701083441,
    "lon": 18.96335221619
  },
  {
    "id": "19612",
    "name": "Wielowieś",
    "lat": 50.62518771919,
    "lon": 21.75847334143
  },
  {
    "id": "19703",
    "name": "Toruń Główny",
    "lat": 53.00028543145,
    "lon": 18.61523577175
  },
  {
    "id": "1974",
    "name": "Żabowo",
    "lat": 53.71759724003,
    "lon": 15.19063666242
  },
  {
    "id": "19752",
    "name": "Toruń Czerniewice",
    "lat": 52.97495301956,
    "lon": 18.67391481421
  },
  {
    "id": "19760",
    "name": "Brzoza Toruńska",
    "lat": 52.96139683976,
    "lon": 18.68526576877
  },
  {
    "id": "19778",
    "name": "Otłoczyn",
    "lat": 52.91267765555,
    "lon": 18.69266907185
  },
  {
    "id": "19786",
    "name": "Toruń Kluczyki",
    "lat": 52.99005809783,
    "lon": 18.57845761241
  },
  {
    "id": "19794",
    "name": "Toruń Miasto",
    "lat": 53.01255851114,
    "lon": 18.61958619091
  },
  {
    "id": "19810",
    "name": "Cierpice",
    "lat": 52.98877404353,
    "lon": 18.4699276489
  },
  {
    "id": "19828",
    "name": "Przyłubie",
    "lat": 53.04983131727,
    "lon": 18.32408873476
  },
  {
    "id": "19844",
    "name": "Solec Kujawski",
    "lat": 53.07834855349,
    "lon": 18.22523224971
  },
  {
    "id": "19901",
    "name": "Toruń Wschodni",
    "lat": 53.02627374254,
    "lon": 18.63324836377
  },
  {
    "id": "19935",
    "name": "Lubicz",
    "lat": 53.02795742353,
    "lon": 18.74520953373
  },
  {
    "id": "19943",
    "name": "Grębocin",
    "lat": 53.04586045779,
    "lon": 18.689986462
  },
  {
    "id": "19950",
    "name": "Dobrzejewice",
    "lat": 52.99909880142,
    "lon": 18.82203381615
  },
  {
    "id": "19968",
    "name": "Obrowo",
    "lat": 52.96814492338,
    "lon": 18.88307259392
  },
  {
    "id": "19976",
    "name": "Czernikowo",
    "lat": 52.93951112405,
    "lon": 18.95099320734
  },
  {
    "id": "19984",
    "name": "Ograszka",
    "lat": 52.90586529593,
    "lon": 19.02613344048
  },
  {
    "id": "20016",
    "name": "Konotopie",
    "lat": 52.86998628611,
    "lon": 19.10265714352
  },
  {
    "id": "20024",
    "name": "Lipno",
    "lat": 52.85416056431,
    "lon": 19.17894702579
  },
  {
    "id": "20032",
    "name": "Karnkowo",
    "lat": 52.86702647664,
    "lon": 19.26449688095
  },
  {
    "id": "20040",
    "name": "Skępe",
    "lat": 52.87211057235,
    "lon": 19.34167755093
  },
  {
    "id": "20057",
    "name": "Czermno",
    "lat": 52.86366,
    "lon": 19.42471125397
  },
  {
    "id": "20065",
    "name": "Papowo Toruńskie",
    "lat": 53.06806413795,
    "lon": 18.69328479873
  },
  {
    "id": "201092",
    "name": "Warszawa Praga",
    "lat": 52.276981488,
    "lon": 21.02265696693
  },
  {
    "id": "20164",
    "name": "Chełmża",
    "lat": 53.18508108504,
    "lon": 18.59809033492
  },
  {
    "id": "20255",
    "name": "Wrocławki",
    "lat": 53.24116188206,
    "lon": 18.61031166138
  },
  {
    "id": "20263",
    "name": "Kornatowo",
    "lat": 53.29704335954,
    "lon": 18.64772364418
  },
  {
    "id": "20271",
    "name": "Firlus",
    "lat": 53.26941757775,
    "lon": 18.6294580172
  },
  {
    "id": "20370",
    "name": "Ostaszewo Toruńskie",
    "lat": 53.11064981067,
    "lon": 18.62728562698
  },
  {
    "id": "20388",
    "name": "Grzywna",
    "lat": 53.15491489495,
    "lon": 18.61711145767
  },
  {
    "id": "20396",
    "name": "Łysomice",
    "lat": 53.08486809764,
    "lon": 18.61997682209
  },
  {
    "id": "20412",
    "name": "Unisław Pomorski",
    "lat": 53.20653072246,
    "lon": 18.38400542328
  },
  {
    "id": "20420",
    "name": "Grzybno",
    "lat": 53.20358714743,
    "lon": 18.4462202037
  },
  {
    "id": "20446",
    "name": "Nawra",
    "lat": 53.20323285268,
    "lon": 18.48466239021
  },
  {
    "id": "20453",
    "name": "Głuchowo",
    "lat": 53.20206321326,
    "lon": 18.54354344048
  },
  {
    "id": "20503",
    "name": "Grudziądz",
    "lat": 53.48202833459,
    "lon": 18.760921647
  },
  {
    "id": "20537",
    "name": "Grudziądz Owczarki",
    "lat": 53.50280551803,
    "lon": 18.84686602208
  },
  {
    "id": "20545",
    "name": "Rogóźno Pomorskie",
    "lat": 53.54392060108,
    "lon": 18.91133358215
  },
  {
    "id": "20552",
    "name": "Gardeja",
    "lat": 53.59187465865,
    "lon": 18.93280703879
  },
  {
    "id": "20560",
    "name": "Nicwałd",
    "lat": 53.45978714819,
    "lon": 18.88012102083
  },
  {
    "id": "20578",
    "name": "Mełno",
    "lat": 53.43672904671,
    "lon": 18.94784330249
  },
  {
    "id": "20628",
    "name": "Grudziądz Mniszek",
    "lat": 53.4330403102,
    "lon": 18.72535781349
  },
  {
    "id": "20636",
    "name": "Grudziądz Przedmieście",
    "lat": 53.47464903578,
    "lon": 18.74890489815
  },
  {
    "id": "20644",
    "name": "Wałdowo Szlacheckie",
    "lat": 53.38749035308,
    "lon": 18.72277
  },
  {
    "id": "20651",
    "name": "Gorzuchowo Chełmińskie",
    "lat": 53.35042134076,
    "lon": 18.69325874603
  },
  {
    "id": "20669",
    "name": "Dragacz",
    "lat": 53.49149252232,
    "lon": 18.70995282054
  },
  {
    "id": "20719",
    "name": "Kowalewo Pomorskie",
    "lat": 53.16390015664,
    "lon": 18.86912122812
  },
  {
    "id": "20727",
    "name": "Zieleń",
    "lat": 53.21617170908,
    "lon": 18.93055668537
  },
  {
    "id": "20743",
    "name": "Wąbrzeźno",
    "lat": 53.26501488054,
    "lon": 18.98184118506
  },
  {
    "id": "20768",
    "name": "Rychnowo Wielkie",
    "lat": 53.14251923905,
    "lon": 18.81447893464
  },
  {
    "id": "20776",
    "name": "Kamionki Jezioro",
    "lat": 53.12978058548,
    "lon": 18.77983152395
  },
  {
    "id": "20784",
    "name": "Turzno",
    "lat": 53.10076888342,
    "lon": 18.73652242151
  },
  {
    "id": "208",
    "name": "Szczecin Gumieńce",
    "lat": 53.39796622962,
    "lon": 14.49716905694
  },
  {
    "id": "20909",
    "name": "Jabłonowo Pomorskie",
    "lat": 53.39343883028,
    "lon": 19.16297520632
  },
  {
    "id": "20933",
    "name": "Książki",
    "lat": 53.32988662059,
    "lon": 19.06743292583
  },
  {
    "id": "20941",
    "name": "Bursztynowo",
    "lat": 53.40152,
    "lon": 19.06933
  },
  {
    "id": "20958",
    "name": "Linowo",
    "lat": 53.41119462852,
    "lon": 19.03297660589
  },
  {
    "id": "20966",
    "name": "Boguszewo",
    "lat": 53.42202657534,
    "lon": 19.00063989401
  },
  {
    "id": "209839",
    "name": "Знам’янка-Пасажирська",
    "lat": 48.71037637811,
    "lon": 32.68977640986
  },
  {
    "id": "209910",
    "name": "Кам'янське-Пасажирське",
    "lat": 48.49728435238,
    "lon": 34.60406362474
  },
  {
    "id": "21055",
    "name": "Konojady",
    "lat": 53.34937293657,
    "lon": 19.22761914968
  },
  {
    "id": "21063",
    "name": "Ostrowite koło Jabłonowa",
    "lat": 53.43368324719,
    "lon": 19.26812972453
  },
  {
    "id": "21071",
    "name": "Biskupiec Pomorski",
    "lat": 53.48938671312,
    "lon": 19.38935189345
  },
  {
    "id": "21097",
    "name": "Lipinki",
    "lat": 53.46438168847,
    "lon": 19.3188861896
  },
  {
    "id": "21204",
    "name": "Brodnica",
    "lat": 53.26365677302,
    "lon": 19.40584122598
  },
  {
    "id": "21352",
    "name": "Najmowo",
    "lat": 53.3067495231,
    "lon": 19.32176469684
  },
  {
    "id": "21428",
    "name": "Rypin",
    "lat": 53.06863231073,
    "lon": 19.42769586772
  },
  {
    "id": "2147",
    "name": "Trzebiatów",
    "lat": 54.06059807419,
    "lon": 15.27763338805
  },
  {
    "id": "21501",
    "name": "Aleksandrów Kujawski",
    "lat": 52.87577962272,
    "lon": 18.69652461131
  },
  {
    "id": "21535",
    "name": "Nieszawa Waganiec",
    "lat": 52.80312571824,
    "lon": 18.87017088688
  },
  {
    "id": "2154",
    "name": "Gąbin",
    "lat": 54.01065169468,
    "lon": 15.2867842755
  },
  {
    "id": "21543",
    "name": "Turzno Kujawskie",
    "lat": 52.83350450139,
    "lon": 18.78086236224
  },
  {
    "id": "21550",
    "name": "Ciechocinek",
    "lat": 52.88140387601,
    "lon": 18.7885308212
  },
  {
    "id": "21568",
    "name": "Odolion",
    "lat": 52.86991659616,
    "lon": 18.74750107259
  },
  {
    "id": "21600",
    "name": "Włocławek",
    "lat": 52.65299481041,
    "lon": 19.05898571719
  },
  {
    "id": "216137",
    "name": "Borucice",
    "lat": 50.98195411375,
    "lon": 17.55672155093
  },
  {
    "id": "2162",
    "name": "Górzyca Reska",
    "lat": 53.96931271802,
    "lon": 15.23300754656
  },
  {
    "id": "21642",
    "name": "Włocławek Zazamcze",
    "lat": 52.6681799647,
    "lon": 19.03827462692
  },
  {
    "id": "21659",
    "name": "Lubanie",
    "lat": 52.74246066148,
    "lon": 18.92430247059
  },
  {
    "id": "21683",
    "name": "Czerniewice",
    "lat": 52.50895836903,
    "lon": 19.08934113293
  },
  {
    "id": "2170",
    "name": "Gryfice",
    "lat": 53.91486909876,
    "lon": 15.19175232243
  },
  {
    "id": "21717",
    "name": "Warząchewka",
    "lat": 52.5847377689,
    "lon": 19.08077691384
  },
  {
    "id": "21733",
    "name": "Gołaszewo Kujawskie",
    "lat": 52.54652998608,
    "lon": 19.0912225776
  },
  {
    "id": "21741",
    "name": "Wiktorowo",
    "lat": 52.46428159846,
    "lon": 19.10633478788
  },
  {
    "id": "21758",
    "name": "Kaliska Kujawskie",
    "lat": 52.41190907786,
    "lon": 19.12392194677
  },
  {
    "id": "21766",
    "name": "Rutkowice",
    "lat": 52.36167955691,
    "lon": 19.15905632329
  },
  {
    "id": "21808",
    "name": "Iława Główna",
    "lat": 53.58231351954,
    "lon": 19.57368118092
  },
  {
    "id": "21816",
    "name": "Iława Miasto",
    "lat": 53.59578157385,
    "lon": 19.54828696662
  },
  {
    "id": "21824",
    "name": "Rudzienice Suskie",
    "lat": 53.63816621839,
    "lon": 19.66818546718
  },
  {
    "id": "21832",
    "name": "Pikus",
    "lat": 53.65633047277,
    "lon": 19.73778270089
  },
  {
    "id": "21840",
    "name": "Samborowo",
    "lat": 53.67184512434,
    "lon": 19.82036058529
  },
  {
    "id": "21857",
    "name": "Smolniki",
    "lat": 53.54025761411,
    "lon": 19.60436469159
  },
  {
    "id": "21865",
    "name": "Rakowice",
    "lat": 53.47816034692,
    "lon": 19.64148965795
  },
  {
    "id": "21873",
    "name": "Zajączkowo Lubawskie",
    "lat": 53.4442854364,
    "lon": 19.71297885189
  },
  {
    "id": "2188",
    "name": "Baszewice",
    "lat": 53.86282216121,
    "lon": 15.19239284608
  },
  {
    "id": "21881",
    "name": "Montowo",
    "lat": 53.41618307104,
    "lon": 19.78003703047
  },
  {
    "id": "21899",
    "name": "Hartowiec",
    "lat": 53.39613298757,
    "lon": 19.84517478658
  },
  {
    "id": "21923",
    "name": "Jeglia",
    "lat": 53.39105150998,
    "lon": 19.87611679498
  },
  {
    "id": "21931",
    "name": "Jamielnik",
    "lat": 53.52868023833,
    "lon": 19.50079801807
  },
  {
    "id": "22004",
    "name": "Ostróda",
    "lat": 53.69967504512,
    "lon": 19.95142715682
  },
  {
    "id": "2204",
    "name": "Stargard",
    "lat": 53.33916044899,
    "lon": 15.03132722574
  },
  {
    "id": "220591",
    "name": "Łódź Olechów Zachód",
    "lat": 51.72496777711,
    "lon": 19.55949202168
  },
  {
    "id": "22079",
    "name": "Stare Jabłonki",
    "lat": 53.69135344775,
    "lon": 20.09366151963
  },
  {
    "id": "22087",
    "name": "Lubajny",
    "lat": 53.70042725499,
    "lon": 20.02500832025
  },
  {
    "id": "22095",
    "name": "Biesal",
    "lat": 53.72026146591,
    "lon": 20.19367253802
  },
  {
    "id": "2212",
    "name": "Ulikowo",
    "lat": 53.34854535165,
    "lon": 15.11740972817
  },
  {
    "id": "2220",
    "name": "Gogolewo",
    "lat": 53.37220968931,
    "lon": 15.17647376905
  },
  {
    "id": "22202",
    "name": "Nidzica",
    "lat": 53.35711425351,
    "lon": 20.41398876596
  },
  {
    "id": "22236",
    "name": "Kozłowo",
    "lat": 53.31083432105,
    "lon": 20.31274849188
  },
  {
    "id": "22244",
    "name": "Zakrzów-Sarnowo",
    "lat": 53.28284400425,
    "lon": 20.2845943577
  },
  {
    "id": "22400",
    "name": "Iłowo",
    "lat": 53.16565276898,
    "lon": 20.29372732275
  },
  {
    "id": "22434",
    "name": "Narzym",
    "lat": 53.18996957,
    "lon": 20.25356215211
  },
  {
    "id": "22442",
    "name": "Działdowo",
    "lat": 53.23894199774,
    "lon": 20.1672217791
  },
  {
    "id": "22459",
    "name": "Burkat",
    "lat": 53.27517359084,
    "lon": 20.1353243569
  },
  {
    "id": "22467",
    "name": "Turza Wielka",
    "lat": 53.30737998054,
    "lon": 20.08390632526
  },
  {
    "id": "224678",
    "name": "Frenštát pod Radhoštěm město",
    "lat": 49.54452146431,
    "lon": 18.20834808355
  },
  {
    "id": "22475",
    "name": "Gralewo",
    "lat": 53.32016175727,
    "lon": 20.03490659746
  },
  {
    "id": "22483",
    "name": "Żabiny",
    "lat": 53.34214940502,
    "lon": 19.98314374022
  },
  {
    "id": "22491",
    "name": "Tuczki",
    "lat": 53.35213728614,
    "lon": 19.95460390208
  },
  {
    "id": "22517",
    "name": "Rybno Pomorskie",
    "lat": 53.38090761567,
    "lon": 19.91399262892
  },
  {
    "id": "2253",
    "name": "Reptowo",
    "lat": 53.37238311132,
    "lon": 14.86373790328
  },
  {
    "id": "2279",
    "name": "Miedwiecko",
    "lat": 53.36471987503,
    "lon": 14.92454228294
  },
  {
    "id": "22905",
    "name": "Prabuty",
    "lat": 53.75781755726,
    "lon": 19.21039490068
  },
  {
    "id": "22939",
    "name": "Susz",
    "lat": 53.71120190409,
    "lon": 19.32907854879
  },
  {
    "id": "22954",
    "name": "Redaki",
    "lat": 53.67107421044,
    "lon": 19.40818047442
  },
  {
    "id": "22962",
    "name": "Ząbrowo",
    "lat": 53.63723902211,
    "lon": 19.46088081705
  },
  {
    "id": "23044",
    "name": "Mikołajki Pomorskie",
    "lat": 53.84976093593,
    "lon": 19.15838597059
  },
  {
    "id": "23051",
    "name": "Gdakowo",
    "lat": 53.81649149556,
    "lon": 19.17013400255
  },
  {
    "id": "23101",
    "name": "Kwidzyn",
    "lat": 53.73096712328,
    "lon": 18.93361571347
  },
  {
    "id": "2311",
    "name": "Grzędzice",
    "lat": 53.35826690536,
    "lon": 14.97252683247
  },
  {
    "id": "23143",
    "name": "Sadlinki",
    "lat": 53.66726316996,
    "lon": 18.88045234718
  },
  {
    "id": "23168",
    "name": "Dziwno",
    "lat": 53.61870496794,
    "lon": 18.9017196495
  },
  {
    "id": "23192",
    "name": "Brachlewo",
    "lat": 53.80243977919,
    "lon": 18.96120131131
  },
  {
    "id": "23218",
    "name": "Ryjewo",
    "lat": 53.84319010872,
    "lon": 18.95681329538
  },
  {
    "id": "23226",
    "name": "Sztumska Wieś",
    "lat": 53.89508223835,
    "lon": 19.00146283258
  },
  {
    "id": "2329",
    "name": "Kolin",
    "lat": 53.24501073137,
    "lon": 15.1238891382
  },
  {
    "id": "23309",
    "name": "Ostrołęka",
    "lat": 53.05607334229,
    "lon": 21.61671868584
  },
  {
    "id": "233169",
    "name": "Słubice",
    "lat": 52.33595458924,
    "lon": 14.59507038591
  },
  {
    "id": "233222",
    "name": "Siedlce Zachodnie",
    "lat": 52.17351388703,
    "lon": 22.2355422324
  },
  {
    "id": "23333",
    "name": "Grabowo",
    "lat": 53.07284167846,
    "lon": 21.53316019893
  },
  {
    "id": "23341",
    "name": "Nowa Wieś Kościelna",
    "lat": 53.08472623382,
    "lon": 21.41255735278
  },
  {
    "id": "23358",
    "name": "Zabiele Wielkie",
    "lat": 53.08460380225,
    "lon": 21.34836671591
  },
  {
    "id": "23366",
    "name": "Jastrząbka",
    "lat": 53.1326426275,
    "lon": 21.24736052513
  },
  {
    "id": "23374",
    "name": "Parciaki",
    "lat": 53.17479952878,
    "lon": 21.14110861244
  },
  {
    "id": "23382",
    "name": "Olszewka",
    "lat": 53.21430815735,
    "lon": 21.05940038359
  },
  {
    "id": "23390",
    "name": "Raszujka",
    "lat": 53.24610249644,
    "lon": 21.00394457275
  },
  {
    "id": "23416",
    "name": "Chorzele",
    "lat": 53.27941854423,
    "lon": 20.9430678889
  },
  {
    "id": "23432",
    "name": "Wielbark",
    "lat": 53.4002127907,
    "lon": 20.95288037181
  },
  {
    "id": "23440",
    "name": "Kurpie",
    "lat": 53.05582765746,
    "lon": 21.75462482214
  },
  {
    "id": "2345",
    "name": "Witkowo",
    "lat": 53.28450823145,
    "lon": 15.07831252373
  },
  {
    "id": "23465",
    "name": "Śniadowo",
    "lat": 53.04385448775,
    "lon": 21.99063777387
  },
  {
    "id": "23531",
    "name": "Kulesze Kościelne",
    "lat": 53.01991432215,
    "lon": 22.51953184068
  },
  {
    "id": "23549",
    "name": "Sokoły",
    "lat": 52.9998867729,
    "lon": 22.71915256441
  },
  {
    "id": "235669",
    "name": "Lewin Brzeski",
    "lat": 50.75811696643,
    "lon": 17.61540146435
  },
  {
    "id": "235879",
    "name": "Kraków Lotnisko",
    "lat": 50.07095272195,
    "lon": 19.80129807919
  },
  {
    "id": "2360",
    "name": "Morzyca",
    "lat": 53.21861252291,
    "lon": 15.15528061464
  },
  {
    "id": "236232",
    "name": "Zabierzów Rząska",
    "lat": 50.10575289604,
    "lon": 19.82342125397
  },
  {
    "id": "236483",
    "name": "Löcknitz",
    "lat": 53.45613209781,
    "lon": 14.21539946337
  },
  {
    "id": "23655",
    "name": "Gierwaty",
    "lat": 52.9925236435,
    "lon": 21.60403431779
  },
  {
    "id": "23663",
    "name": "Goworowo",
    "lat": 52.92109104572,
    "lon": 21.58202165277
  },
  {
    "id": "23671",
    "name": "Pasieki",
    "lat": 52.85402350326,
    "lon": 21.56048106746
  },
  {
    "id": "23689",
    "name": "Prabuty Góry",
    "lat": 52.80640571438,
    "lon": 21.56985827116
  },
  {
    "id": "23697",
    "name": "Przetycz",
    "lat": 52.76895988161,
    "lon": 21.55118464887
  },
  {
    "id": "23713",
    "name": "Dalekie",
    "lat": 52.68248581795,
    "lon": 21.49440306746
  },
  {
    "id": "23721",
    "name": "Leszczydół",
    "lat": 52.64587921163,
    "lon": 21.46926464418
  },
  {
    "id": "23739",
    "name": "Zygmuntowo Mazowieckie",
    "lat": 52.72745056379,
    "lon": 21.52551669444
  },
  {
    "id": "2386",
    "name": "Dolice",
    "lat": 53.19917286418,
    "lon": 15.20880649049
  },
  {
    "id": "239138",
    "name": "Kraków Podgórze",
    "lat": 50.04144753293,
    "lon": 19.96005213439
  },
  {
    "id": "239140",
    "name": "Kraków Grzegórzki",
    "lat": 50.05743496953,
    "lon": 19.94795858324
  },
  {
    "id": "24000",
    "name": "Białystok",
    "lat": 53.13357012396,
    "lon": 23.1353969616
  },
  {
    "id": "24042",
    "name": "Białystok Starosielce",
    "lat": 53.12133576085,
    "lon": 23.08656280864
  },
  {
    "id": "24059",
    "name": "Białystok Bacieczki",
    "lat": 53.15092967256,
    "lon": 23.07171681973
  },
  {
    "id": "24067",
    "name": "Fasty",
    "lat": 53.1767017601,
    "lon": 23.02492544428
  },
  {
    "id": "240720",
    "name": "Warszawa Żwirki i Wigury",
    "lat": 52.19340974892,
    "lon": 20.98037906746
  },
  {
    "id": "24075",
    "name": "Dobrzyniewo Duże",
    "lat": 53.19434708606,
    "lon": 23.002746358
  },
  {
    "id": "24083",
    "name": "Borsukówka",
    "lat": 53.22733793467,
    "lon": 22.93083655236
  },
  {
    "id": "24091",
    "name": "Knyszyn",
    "lat": 53.28463049794,
    "lon": 22.89599857642
  },
  {
    "id": "24117",
    "name": "Zastocze",
    "lat": 53.31236921407,
    "lon": 22.857372896
  },
  {
    "id": "24125",
    "name": "Czechowizna",
    "lat": 53.35117161474,
    "lon": 22.83676115472
  },
  {
    "id": "24133",
    "name": "Mońki",
    "lat": 53.40236162335,
    "lon": 22.79687370076
  },
  {
    "id": "24141",
    "name": "Goniądz",
    "lat": 53.45937931057,
    "lon": 22.7263862125
  },
  {
    "id": "241558",
    "name": "Cygany",
    "lat": 50.51268628593,
    "lon": 21.69704854489
  },
  {
    "id": "241559",
    "name": "Tarnowska Wola",
    "lat": 50.45157475985,
    "lon": 21.73572063446
  },
  {
    "id": "241560",
    "name": "Rogoźnica koło Rzeszowa",
    "lat": 50.11691142317,
    "lon": 21.96892261505
  },
  {
    "id": "241561",
    "name": "Rzeszów Miłocin",
    "lat": 50.07556107463,
    "lon": 21.9872072339
  },
  {
    "id": "24158",
    "name": "Osowiec",
    "lat": 53.47288699902,
    "lon": 22.65683136153
  },
  {
    "id": "24166",
    "name": "Podlasek",
    "lat": 53.55790339299,
    "lon": 22.53482581267
  },
  {
    "id": "241701",
    "name": "Port Lotniczy Szczecin Goleniów",
    "lat": 53.59359705876,
    "lon": 14.89776528836
  },
  {
    "id": "241793",
    "name": "Harrachov",
    "lat": 50.77146072849,
    "lon": 15.39339478043
  },
  {
    "id": "24182",
    "name": "Ruda",
    "lat": 53.58936189187,
    "lon": 22.52060171512
  },
  {
    "id": "24190",
    "name": "Wasilków",
    "lat": 53.19794863109,
    "lon": 23.17681023032
  },
  {
    "id": "241960",
    "name": "Wieliczka Rynek-Kopalnia",
    "lat": 49.985672592,
    "lon": 20.05670606822
  },
  {
    "id": "241966",
    "name": "Wrocław Stadion",
    "lat": 51.13716008979,
    "lon": 16.94045936931
  },
  {
    "id": "241994",
    "name": "Warszawa Lotnisko Chopina",
    "lat": 52.16962861123,
    "lon": 20.97518083069
  },
  {
    "id": "24216",
    "name": "Czarny Blok",
    "lat": 53.24852216112,
    "lon": 23.20921213215
  },
  {
    "id": "242218",
    "name": "Kotowo",
    "lat": 52.22834342842,
    "lon": 16.4837562381
  },
  {
    "id": "242219",
    "name": "Zielone Wzgórza",
    "lat": 52.56507326357,
    "lon": 17.00848416931
  },
  {
    "id": "242220",
    "name": "Czerwonak Osiedle",
    "lat": 52.48026178794,
    "lon": 16.97802536442
  },
  {
    "id": "24224",
    "name": "Wólka Ratowiecka",
    "lat": 53.27962158213,
    "lon": 23.24356799945
  },
  {
    "id": "24232",
    "name": "Czarna Białostocka",
    "lat": 53.30561866908,
    "lon": 23.27966765671
  },
  {
    "id": "24240",
    "name": "Machnacz",
    "lat": 53.33136054596,
    "lon": 23.31764179735
  },
  {
    "id": "24257",
    "name": "Rozedranka",
    "lat": 53.35910923869,
    "lon": 23.36548483305
  },
  {
    "id": "2428",
    "name": "Tarnowo Pomorskie",
    "lat": 53.30628810479,
    "lon": 15.36666556906
  },
  {
    "id": "242822",
    "name": "Wieliczka Bogucice",
    "lat": 49.99837435105,
    "lon": 20.03712862462
  },
  {
    "id": "242837",
    "name": "Tychy Grota Roweckiego",
    "lat": 50.11395648009,
    "lon": 18.98641749207
  },
  {
    "id": "242838",
    "name": "Tychy Aleja Bielska",
    "lat": 50.11715439773,
    "lon": 18.98254536442
  },
  {
    "id": "242839",
    "name": "Tychy Lodowisko",
    "lat": 50.10765935728,
    "lon": 19.00079358532
  },
  {
    "id": "242843",
    "name": "Glinnik Wieś",
    "lat": 51.8825705473,
    "lon": 19.48152972751
  },
  {
    "id": "242844",
    "name": "Domaniewice Centrum",
    "lat": 52.01203319469,
    "lon": 19.79204480957
  },
  {
    "id": "242927",
    "name": "Pierwoszów Miłocin",
    "lat": 51.25515827226,
    "lon": 17.09906358532
  },
  {
    "id": "242953",
    "name": "Zagrody Kościół",
    "lat": 51.07852483401,
    "lon": 23.19047218651
  },
  {
    "id": "242954",
    "name": "Lublin Ponikwoda",
    "lat": 51.26609978214,
    "lon": 22.60603503439
  },
  {
    "id": "242955",
    "name": "Lublin Zadębie",
    "lat": 51.25799500005,
    "lon": 22.60998288095
  },
  {
    "id": "242974",
    "name": "Niemce",
    "lat": 51.36291890987,
    "lon": 22.64641670898
  },
  {
    "id": "242975",
    "name": "Lubartów Lipowa",
    "lat": 51.46414800452,
    "lon": 22.5994082123
  },
  {
    "id": "242976",
    "name": "Lubartów Słowackiego",
    "lat": 51.47314710327,
    "lon": 22.60518820398
  },
  {
    "id": "242977",
    "name": "Parczew Kolejowa",
    "lat": 51.6346649681,
    "lon": 22.88088092527
  },
  {
    "id": "243081",
    "name": "Lublin Airport",
    "lat": 51.23498178221,
    "lon": 22.71539751653
  },
  {
    "id": "243509",
    "name": "Wien Hauptbahnhof",
    "lat": 48.18484462747,
    "lon": 16.37810468674
  },
  {
    "id": "2436",
    "name": "Barzkowice",
    "lat": 53.32700984235,
    "lon": 15.26425065989
  },
  {
    "id": "24364",
    "name": "Lewickie",
    "lat": 53.02805209369,
    "lon": 23.12476246158
  },
  {
    "id": "24372",
    "name": "Białystok Stadion",
    "lat": 53.09799296238,
    "lon": 23.1292194196
  },
  {
    "id": "24380",
    "name": "Hołówki Duże",
    "lat": 52.97136631736,
    "lon": 23.09527816219
  },
  {
    "id": "24398",
    "name": "Zimnochy",
    "lat": 52.95480321897,
    "lon": 23.0855189777
  },
  {
    "id": "24414",
    "name": "Strabla",
    "lat": 52.90154474544,
    "lon": 23.11328791854
  },
  {
    "id": "24422",
    "name": "Rajsk",
    "lat": 52.82876277657,
    "lon": 23.1486986597
  },
  {
    "id": "24430",
    "name": "Bielsk Podlaski",
    "lat": 52.7617180417,
    "lon": 23.18770672342
  },
  {
    "id": "2444",
    "name": "Sulino",
    "lat": 53.31803723266,
    "lon": 15.3152866603
  },
  {
    "id": "24455",
    "name": "Lewki",
    "lat": 52.73030237084,
    "lon": 23.21155120283
  },
  {
    "id": "2451",
    "name": "Ognica",
    "lat": 53.31605057572,
    "lon": 15.45341551872
  },
  {
    "id": "24513",
    "name": "Gregorowce",
    "lat": 52.66228641241,
    "lon": 23.24183003885
  },
  {
    "id": "24521",
    "name": "Podbiele",
    "lat": 52.69186275759,
    "lon": 23.21047422971
  },
  {
    "id": "24539",
    "name": "Łapy",
    "lat": 52.98997579471,
    "lon": 22.88359562683
  },
  {
    "id": "24547",
    "name": "Uhowo",
    "lat": 53.00456775122,
    "lon": 22.90920805889
  },
  {
    "id": "24554",
    "name": "Bojary",
    "lat": 53.0277775866,
    "lon": 22.94979974275
  },
  {
    "id": "24562",
    "name": "Baciuty",
    "lat": 53.04686321417,
    "lon": 22.98318241141
  },
  {
    "id": "24570",
    "name": "Trypucie",
    "lat": 53.07079841362,
    "lon": 23.02498386002
  },
  {
    "id": "24596",
    "name": "Niewodnica",
    "lat": 53.08276362722,
    "lon": 23.04586337635
  },
  {
    "id": "24612",
    "name": "Klepacze",
    "lat": 53.10261875846,
    "lon": 23.08042288678
  },
  {
    "id": "24638",
    "name": "Szepietowo",
    "lat": 52.87006765067,
    "lon": 22.54107530054
  },
  {
    "id": "24646",
    "name": "Łapy Osse",
    "lat": 52.97391019222,
    "lon": 22.83962834115
  },
  {
    "id": "24653",
    "name": "Zdrody Nowe",
    "lat": 52.95412247536,
    "lon": 22.7824251135
  },
  {
    "id": "24661",
    "name": "Racibory",
    "lat": 52.92992232747,
    "lon": 22.7125818016
  },
  {
    "id": "246776",
    "name": "Berlin Ostbahnhof",
    "lat": 52.51047506371,
    "lon": 13.43471288681
  },
  {
    "id": "24687",
    "name": "Jabłoń Kościelna",
    "lat": 52.90836875575,
    "lon": 22.65055689084
  },
  {
    "id": "2469",
    "name": "Sokoliniec",
    "lat": 53.2940140269,
    "lon": 15.50556047949
  },
  {
    "id": "246940",
    "name": "Strasburg (Uckermark)",
    "lat": 53.51510737948,
    "lon": 13.74505742328
  },
  {
    "id": "24695",
    "name": "Szymbory",
    "lat": 52.89403042638,
    "lon": 22.60943074305
  },
  {
    "id": "24711",
    "name": "Dąbrowa-Łazy",
    "lat": 52.84042362734,
    "lon": 22.45665549159
  },
  {
    "id": "24729",
    "name": "Kity",
    "lat": 52.8282804999,
    "lon": 22.42224274993
  },
  {
    "id": "24737",
    "name": "Czyżew",
    "lat": 52.79971278558,
    "lon": 22.34214662433
  },
  {
    "id": "24745",
    "name": "Szulborze Wielkie",
    "lat": 52.76059373232,
    "lon": 22.22744992262
  },
  {
    "id": "247482",
    "name": "Berlin Hauptbahnhof",
    "lat": 52.52493988276,
    "lon": 13.36949364418
  },
  {
    "id": "247495",
    "name": "Cottbus-Sandow",
    "lat": 51.75498392635,
    "lon": 14.35360549808
  },
  {
    "id": "2477",
    "name": "Recz Pomorski",
    "lat": 53.27103294834,
    "lon": 15.56352664676
  },
  {
    "id": "247858",
    "name": "Jablonec nad Nisou centrum",
    "lat": 50.72087754692,
    "lon": 15.17377734722
  },
  {
    "id": "247860",
    "name": "Smržovka-Luční",
    "lat": 50.73504034176,
    "lon": 15.24956936176
  },
  {
    "id": "24802",
    "name": "Sokółka",
    "lat": 53.40325782489,
    "lon": 23.50737489028
  },
  {
    "id": "248058",
    "name": "Berlin Gesundbrunnen",
    "lat": 52.54874770663,
    "lon": 13.39037981748
  },
  {
    "id": "24836",
    "name": "Kundzin",
    "lat": 53.43949596834,
    "lon": 23.59077712249
  },
  {
    "id": "24844",
    "name": "Czuprynowo",
    "lat": 53.47224486644,
    "lon": 23.63154489206
  },
  {
    "id": "2485",
    "name": "Pęzino",
    "lat": 53.33549265711,
    "lon": 15.19549517214
  },
  {
    "id": "24851",
    "name": "Gliniszcze",
    "lat": 53.46581147083,
    "lon": 23.5010527552
  },
  {
    "id": "24869",
    "name": "Racewo",
    "lat": 53.49795909662,
    "lon": 23.48457830612
  },
  {
    "id": "24877",
    "name": "Sidra",
    "lat": 53.54476453004,
    "lon": 23.44666271808
  },
  {
    "id": "24885",
    "name": "Różanystok",
    "lat": 53.62317198592,
    "lon": 23.39223814144
  },
  {
    "id": "24893",
    "name": "Dąbrowa Białostocka",
    "lat": 53.64823698271,
    "lon": 23.36495438078
  },
  {
    "id": "24919",
    "name": "Kamienna Nowa",
    "lat": 53.69120801043,
    "lon": 23.26306948383
  },
  {
    "id": "24927",
    "name": "Ostrowie Biebrzańskie",
    "lat": 53.71963009642,
    "lon": 23.24394815031
  },
  {
    "id": "24935",
    "name": "Jastrzębna",
    "lat": 53.74579686539,
    "lon": 23.19831801078
  },
  {
    "id": "24943",
    "name": "Balinka",
    "lat": 53.76812163045,
    "lon": 23.1608199315
  },
  {
    "id": "249946",
    "name": "Desná-Pustinská",
    "lat": 50.76416823245,
    "lon": 15.33549994114
  },
  {
    "id": "249949",
    "name": "Desná-Riedlova vila",
    "lat": 50.75926331926,
    "lon": 15.31393827976
  },
  {
    "id": "25007",
    "name": "Kuźnica Białostocka",
    "lat": 53.51153439649,
    "lon": 23.64210453598
  },
  {
    "id": "251555",
    "name": "Łódź Pabianicka",
    "lat": 51.72641710553,
    "lon": 19.4451013029
  },
  {
    "id": "251556",
    "name": "Łódź Radogoszcz Zachód",
    "lat": 51.82164942214,
    "lon": 19.41554277867
  },
  {
    "id": "251557",
    "name": "Ozorków Nowe Miasto",
    "lat": 51.95881116578,
    "lon": 19.269708
  },
  {
    "id": "251558",
    "name": "Zgierz Jaracza",
    "lat": 51.86398312085,
    "lon": 19.42214655952
  },
  {
    "id": "251561",
    "name": "Łódź Dąbrowa",
    "lat": 51.73592584622,
    "lon": 19.51061381349
  },
  {
    "id": "251562",
    "name": "Ramiszów",
    "lat": 51.19316914421,
    "lon": 17.09829122454
  },
  {
    "id": "251565",
    "name": "Warszawa Zacisze - Wilno",
    "lat": 52.27795623182,
    "lon": 21.08023411045
  },
  {
    "id": "251575",
    "name": "Małaszewicze",
    "lat": 52.02702328044,
    "lon": 23.53101906754
  },
  {
    "id": "251584",
    "name": "Kołobrzeg Stadion",
    "lat": 54.17514277076,
    "lon": 15.55921523677
  },
  {
    "id": "251603",
    "name": "Warszawa Ursus Niedźwiadek",
    "lat": 52.1913526495,
    "lon": 20.86947281217
  },
  {
    "id": "251842",
    "name": "Pałecznica",
    "lat": 51.49045780759,
    "lon": 22.65905083189
  },
  {
    "id": "251843",
    "name": "Zabiele",
    "lat": 51.5436432332,
    "lon": 22.76371040874
  },
  {
    "id": "25205",
    "name": "Czeremcha",
    "lat": 52.51867068876,
    "lon": 23.35354454233
  },
  {
    "id": "25254",
    "name": "Dobrowoda",
    "lat": 52.56148566886,
    "lon": 23.39126533817
  },
  {
    "id": "25262",
    "name": "Policzna",
    "lat": 52.58936382777,
    "lon": 23.42375289837
  },
  {
    "id": "25296",
    "name": "Kleszczele",
    "lat": 52.56101979067,
    "lon": 23.32892890044
  },
  {
    "id": "25312",
    "name": "Suchowolce",
    "lat": 52.6170105616,
    "lon": 23.28394220465
  },
  {
    "id": "25320",
    "name": "Borowiki",
    "lat": 52.48207606321,
    "lon": 23.21520624537
  },
  {
    "id": "25346",
    "name": "Nowy Nurzec",
    "lat": 52.47256037859,
    "lon": 23.17662271891
  },
  {
    "id": "25353",
    "name": "Nurzec",
    "lat": 52.46006477662,
    "lon": 23.08304835449
  },
  {
    "id": "25361",
    "name": "Sycze",
    "lat": 52.42921479271,
    "lon": 22.99842081349
  },
  {
    "id": "25387",
    "name": "Siemiatycze",
    "lat": 52.39102692267,
    "lon": 22.9450162209
  },
  {
    "id": "25403",
    "name": "Hajnówka",
    "lat": 52.73340523923,
    "lon": 23.58311622799
  },
  {
    "id": "25437",
    "name": "Orzeszkowo",
    "lat": 52.68168555944,
    "lon": 23.53360467291
  },
  {
    "id": "254531",
    "name": "Lębork Mosty",
    "lat": 54.55021992997,
    "lon": 17.7929913944
  },
  {
    "id": "254532",
    "name": "Wrocław Grabiszyn",
    "lat": 51.09659785733,
    "lon": 16.97412514219
  },
  {
    "id": "254539",
    "name": "Izbica",
    "lat": 50.89063190852,
    "lon": 23.15544673968
  },
  {
    "id": "254692",
    "name": "Grąblewo",
    "lat": 52.23542205145,
    "lon": 16.39055923943
  },
  {
    "id": "254956",
    "name": "Kobylany",
    "lat": 52.03755200442,
    "lon": 23.56063167725
  },
  {
    "id": "257521",
    "name": "Gdańsk Rębiechowo",
    "lat": 54.38745024741,
    "lon": 18.4464659914
  },
  {
    "id": "257530",
    "name": "Gdańsk Port Lotniczy",
    "lat": 54.38286874433,
    "lon": 18.4660080172
  },
  {
    "id": "257531",
    "name": "Gdańsk Matarnia",
    "lat": 54.37339867388,
    "lon": 18.50649533464
  },
  {
    "id": "257532",
    "name": "Gdańsk Jasień",
    "lat": 54.35366498979,
    "lon": 18.55015172024
  },
  {
    "id": "257533",
    "name": "Gdańsk Brętowo",
    "lat": 54.36528034553,
    "lon": 18.57362381602
  },
  {
    "id": "257534",
    "name": "Gdańsk Niedźwiednik",
    "lat": 54.37803566944,
    "lon": 18.57202487161
  },
  {
    "id": "257535",
    "name": "Gdańsk Strzyża",
    "lat": 54.39177971798,
    "lon": 18.57887122223
  },
  {
    "id": "257540",
    "name": "Gdańsk Firoga",
    "lat": 54.37834223228,
    "lon": 18.48605811059
  },
  {
    "id": "257542",
    "name": "Gdańsk Kiełpinek",
    "lat": 54.35534753227,
    "lon": 18.52856516071
  },
  {
    "id": "257551",
    "name": "Żukowo",
    "lat": 54.34438504767,
    "lon": 18.36209927116
  },
  {
    "id": "25809",
    "name": "Rzepin",
    "lat": 52.34991618475,
    "lon": 14.81499390067
  },
  {
    "id": "258130",
    "name": "Wrocław Różanka",
    "lat": 51.13804682313,
    "lon": 17.00373252646
  },
  {
    "id": "258457",
    "name": "Zielona Góra Nowy Kisielin",
    "lat": 51.91543020972,
    "lon": 15.62704843915
  },
  {
    "id": "258458",
    "name": "Gdańsk Śródmieście",
    "lat": 54.3466251019,
    "lon": 18.64421224537
  },
  {
    "id": "258460",
    "name": "Kraków Sanktuarium",
    "lat": 50.01381723595,
    "lon": 19.93429615211
  },
  {
    "id": "258461",
    "name": "Kraków Zakliki",
    "lat": 50.07982130139,
    "lon": 19.84899043769
  },
  {
    "id": "258462",
    "name": "Kraków Młynówka",
    "lat": 50.08170170367,
    "lon": 19.85818371043
  },
  {
    "id": "258463",
    "name": "Kraków Olszanica",
    "lat": 50.07652676054,
    "lon": 19.82562035054
  },
  {
    "id": "258467",
    "name": "Zamość Starówka",
    "lat": 50.71700579393,
    "lon": 23.26270216325
  },
  {
    "id": "258468",
    "name": "Zamość Wschód",
    "lat": 50.72251787642,
    "lon": 23.27600378741
  },
  {
    "id": "258646",
    "name": "Warszawa Mokry Ług",
    "lat": 52.2772554876,
    "lon": 21.17047981349
  },
  {
    "id": "258708",
    "name": "Sucha Beskidzka Zamek",
    "lat": 49.74347611177,
    "lon": 19.60342883527
  },
  {
    "id": "258734",
    "name": "Łopuchowo Osiedle",
    "lat": 52.61905210884,
    "lon": 17.1098702037
  },
  {
    "id": "258735",
    "name": "Przebędowo",
    "lat": 52.5834889573,
    "lon": 17.02349297421
  },
  {
    "id": "25874",
    "name": "Drzeńsko",
    "lat": 52.36984989296,
    "lon": 14.77144092796
  },
  {
    "id": "25890",
    "name": "Jerzmanice Lubuskie",
    "lat": 52.30663356713,
    "lon": 14.86743763104
  },
  {
    "id": "258924",
    "name": "Bydgoszcz Błonie",
    "lat": 53.11778834395,
    "lon": 17.95152335582
  },
  {
    "id": "25908",
    "name": "Gądków Wielki",
    "lat": 52.24621774924,
    "lon": 14.9635560007
  },
  {
    "id": "259135",
    "name": "Cierpice Kąkol",
    "lat": 52.99195451886,
    "lon": 18.44625605488
  },
  {
    "id": "259152",
    "name": "Szymany Lotnisko",
    "lat": 53.48905663179,
    "lon": 20.94752749207
  },
  {
    "id": "259156",
    "name": "Chmielów Zagumnie",
    "lat": 50.52363490875,
    "lon": 21.68586052513
  },
  {
    "id": "25924",
    "name": "Kunowice",
    "lat": 52.34179675959,
    "lon": 14.63860609931
  },
  {
    "id": "259546",
    "name": "Mokre",
    "lat": 50.70803274125,
    "lon": 23.20536256218
  },
  {
    "id": "259553",
    "name": "Wólka Orłowska",
    "lat": 50.92703027536,
    "lon": 23.18342823677
  },
  {
    "id": "25973",
    "name": "Boczów",
    "lat": 52.32675015592,
    "lon": 14.94622819615
  },
  {
    "id": "25981",
    "name": "Torzym",
    "lat": 52.31242204385,
    "lon": 15.05958541691
  },
  {
    "id": "260653",
    "name": "Gorzów Wielkopolski Wschodni",
    "lat": 52.7318397516,
    "lon": 15.24941829696
  },
  {
    "id": "260659",
    "name": "Wrocław Popowice",
    "lat": 51.12710048522,
    "lon": 17.0013527968
  },
  {
    "id": "260710",
    "name": "Gdynia Stadion",
    "lat": 54.49586743918,
    "lon": 18.53313176071
  },
  {
    "id": "260711",
    "name": "Gdynia Karwiny",
    "lat": 54.46938650857,
    "lon": 18.50873873069
  },
  {
    "id": "260715",
    "name": "Ryki",
    "lat": 51.606333,
    "lon": 21.92220593492
  },
  {
    "id": "260901",
    "name": "Zaborów Błonia",
    "lat": 49.92422069892,
    "lon": 21.81951848651
  },
  {
    "id": "260902",
    "name": "Jasło Fabryczne",
    "lat": 49.7492937112,
    "lon": 21.53372977379
  },
  {
    "id": "260937",
    "name": "Kraków Bronowice",
    "lat": 50.08298189422,
    "lon": 19.89220045173
  },
  {
    "id": "26104",
    "name": "Zbąszynek",
    "lat": 52.24319855199,
    "lon": 15.81866168851
  },
  {
    "id": "261229",
    "name": "Subkowy Centrum",
    "lat": 54.00254229452,
    "lon": 18.76073815344
  },
  {
    "id": "261233",
    "name": "Warszawa Koło",
    "lat": 52.24619343106,
    "lon": 20.95901317791
  },
  {
    "id": "261251",
    "name": "Rzeszów Zachodni",
    "lat": 50.05270823989,
    "lon": 21.99420066138
  },
  {
    "id": "261252",
    "name": "Markuszowa",
    "lat": 49.87406100235,
    "lon": 21.70559696693
  },
  {
    "id": "261289",
    "name": "Jelenia Góra Przemysłowa",
    "lat": 50.88770235221,
    "lon": 15.7052317791
  },
  {
    "id": "261290",
    "name": "Jelenia Góra Zabobrze",
    "lat": 50.91033884333,
    "lon": 15.7428272295
  },
  {
    "id": "26146",
    "name": "Zbąszyń",
    "lat": 52.25945349529,
    "lon": 15.89568303348
  },
  {
    "id": "26153",
    "name": "Zbąszyń Przedmieście",
    "lat": 52.25699418388,
    "lon": 15.92659965145
  },
  {
    "id": "26161",
    "name": "Babimost",
    "lat": 52.16850193898,
    "lon": 15.81518693923
  },
  {
    "id": "26187",
    "name": "Chrośnica",
    "lat": 52.28137222425,
    "lon": 15.99168317144
  },
  {
    "id": "26195",
    "name": "Jastrzębsko",
    "lat": 52.29515729322,
    "lon": 16.06128426871
  },
  {
    "id": "26211",
    "name": "Nowy Tomyśl",
    "lat": 52.30412409838,
    "lon": 16.13304662706
  },
  {
    "id": "262191",
    "name": "Majdan Królewski Podlasek",
    "lat": 50.3629543429,
    "lon": 21.73667830675
  },
  {
    "id": "262192",
    "name": "Huta Komorowska",
    "lat": 50.38939441341,
    "lon": 21.71572415582
  },
  {
    "id": "262206",
    "name": "Radziszów Centrum",
    "lat": 49.93693816072,
    "lon": 19.8068883201
  },
  {
    "id": "26237",
    "name": "Sątopy",
    "lat": 52.30330322671,
    "lon": 16.20345823258
  },
  {
    "id": "26245",
    "name": "Porażyn",
    "lat": 52.30229728497,
    "lon": 16.28674150014
  },
  {
    "id": "262505",
    "name": "Nysa Wschodnia",
    "lat": 50.46590751209,
    "lon": 17.35834975463
  },
  {
    "id": "262506",
    "name": "Goszczowice",
    "lat": 50.57280767147,
    "lon": 17.62205001258
  },
  {
    "id": "262507",
    "name": "Bogdanowo",
    "lat": 52.62800803267,
    "lon": 16.8180894705
  },
  {
    "id": "262509",
    "name": "Złotkowo",
    "lat": 52.51029398261,
    "lon": 16.83059274789
  },
  {
    "id": "262510",
    "name": "Złotniki Grzybowe",
    "lat": 52.4846240814,
    "lon": 16.84380785886
  },
  {
    "id": "26252",
    "name": "Lutol Suchy",
    "lat": 52.34393116459,
    "lon": 15.7544919883
  },
  {
    "id": "26260",
    "name": "Panowice",
    "lat": 52.3605001406,
    "lon": 15.73503600272
  },
  {
    "id": "262771",
    "name": "Parzniew",
    "lat": 52.15660840423,
    "lon": 20.7634370172
  },
  {
    "id": "26278",
    "name": "Bukowiec Międzyrzecki",
    "lat": 52.3852131028,
    "lon": 15.70660324082
  },
  {
    "id": "262829",
    "name": "Zaklików Miasto",
    "lat": 50.75496097548,
    "lon": 22.09291528836
  },