stop_id,stop_name,stop_lat,stop_lon
10009,Korsze,54.17218815958,21.13651401118
1008,Świnoujście,53.90470769185,14.26656323212
1024,Międzyzdroje,53.92428980699,14.45527677392
10405,Kętrzyn,54.07262720034,21.38515338756
1073,Świnoujście Port,53.90122157607,14.26013897421
10900,Morąg,53.9190426325,19.92265326678
10934,Pasłęk,54.05549901392,19.65647127013
1107,Szczecin Dąbie,53.39123361294,14.66926219396
11809,Ełk,53.82500922001,22.36246191495
12252,Grajewo,53.64989283042,22.44843402862
12609,Giżycko,54.03136915601,21.77804811001
12807,Suwałki,54.10586069177,22.94531372953
12872,Trakiszki,54.23942758887,23.20794756812
12963,Augustów,53.85269715953,23.02612300308
13003,Kostrzyn,52.59137475132,14.64705568111
13334,Chojna,52.96358798355,14.44419154429
13417,Mieszkowice,52.7817920555,14.48582982023
13904,Gorzów Wielkopolski,52.72749044273,15.22879814324
1404,Goleniów,53.55909731774,14.83954776098
14043,Witnica,52.66737323074,14.89613557767
14308,Zwierzyn,52.83680698734,15.58457212689
14407,Piła Główna,53.14309783834,16.74507578666
14514,Wyrzysk Osiek,53.11915408536,17.29478465849
14548,Trzcianka,53.03334950777,16.46566994802
14704,Wałcz,53.27510473715,16.48431759469
14761,Tuczno Krajeńskie,53.21895710594,16.17519857003
15008,Kalisz Pomorski,53.27774129392,15.88089584789
15354,Złotów,53.35922537361,17.05310625693
15529,Lipka Krajeńska,53.49734059016,17.25740911939
15537,Krajenka,53.28905096242,16.99163627891
1560,Wysoka Kamieńska,53.82558867231,14.83212091762
15602,Chojnice,53.68889583547,17.57791578233
16139,Rogoźno Wielkopolskie,52.75438614339,16.97174572074
16188,Chodzież,52.99399610345,16.90955846355
16402,Jastrowie,53.40813914877,16.79827740168
1651,Kamień Pomorski,53.96616399426,14.77421193812
16717,Bydgoszcz Wschód,53.12792718815,18.08195121957
17202,Laskowice Pomorskie,53.49127459736,18.45632827308
179193,Ягодин,51.1982115567,23.89584302366
179200,Mockava,54.32812093551,23.35573813462
179212,Frankfurt (Oder),52.33643454168,14.54657617299
179221,Petrovice u Karviné,49.89406074761,18.55008243442
179223,Bohumín,49.90081976766,18.35969923854
179228,Lichkov,50.09723178982,16.65857254922
179301,Мостиська IІ,49.81673815357,23.03380250394
18200,Nakło nad Notecią,53.142570647,17.60715211531
18374,Bydgoszcz Leśna,53.14351512249,18.03218214594
18408,Bydgoszcz Główna,53.13528294461,17.99163586184
18705,Inowrocław,52.8054428257,18.24415940463
18838,Inowrocław Rąbinek,52.76926334759,18.24369370401
190042,Рава-Руська,50.23284643759,23.63707422674
19174,Babiak,52.35331125446,18.67035268664
19190,Piotrków Kujawski,52.53779355906,18.51947306514
19406,Zduńska Wola Karsznice,51.58911622285,18.99462102771
19430,Zduńska Wola,51.61127947075,18.94675425261
19489,Sieradz,51.59775671857,18.71469214251
19703,Toruń Główny,53.00028543145,18.61523577175
19794,Toruń Miasto,53.01255851114,18.61958619091
19844,Solec Kujawski,53.07834855349,18.22523224971
19901,Toruń Wschodni,53.02627374254,18.63324836377
20503,Grudziądz,53.48202833459,18.760921647
20719,Kowalewo Pomorskie,53.16390015664,18.86912122812
20743,Wąbrzeźno,53.26501488054,18.98184118506
20909,Jabłonowo Pomorskie,53.39343883028,19.16297520632
21204,Brodnica,53.26365677302,19.40584122598
21428,Rypin,53.06863231073,19.42769586772
21501,Aleksandrów Kujawski,52.87577962272,18.69652461131
21600,Włocławek,52.65299481041,19.05898571719
21808,Iława Główna,53.58231351954,19.57368118092
22004,Ostróda,53.69967504512,19.95142715682
2204,Stargard,53.33916044899,15.03132722574
22202,Nidzica,53.35711425351,20.41398876596
22442,Działdowo,53.23894199774,20.1672217791
22905,Prabuty,53.75781755726,19.21039490068
23101,Kwidzyn,53.73096712328,18.93361571347
24000,Białystok,53.13357012396,23.1353969616
24133,Mońki,53.40236162335,22.79687370076
24158,Osowiec,53.47288699902,22.65683136153
24232,Czarna Białostocka,53.30561866908,23.27966765671
24430,Bielsk Podlaski,52.7617180417,23.18770672342
24539,Łapy,52.98997579471,22.88359562683
24638,Szepietowo,52.87006765067,22.54107530054
24737,Czyżew,52.79971278558,22.34214662433
2477,Recz Pomorski,53.27103294834,15.56352664676
24802,Sokółka,53.40325782489,23.50737489028
24893,Dąbrowa Białostocka,53.64823698271,23.36495438078
251575,Małaszewicze,52.02702328044,23.53101906754
25205,Czeremcha,52.51867068876,23.35354454233
25353,Nurzec,52.46006477662,23.08304835449
25387,Siemiatycze,52.39102692267,22.9450162209
25403,Hajnówka,52.73340523923,23.58311622799
254539,Izbica,50.89063190852,23.15544673968
25809,Rzepin,52.34991618475,14.81499390067
258467,Zamość Starówka,50.71700579393,23.26270216325
258468,Zamość Wschód,50.72251787642,23.27600378741
258708,Sucha Beskidzka Zamek,49.74347611177,19.60342883527
260653,Gorzów Wielkopolski Wschodni,52.7318397516,15.24941829696
26104,Zbąszynek,52.24319855199,15.81866168851
26146,Zbąszyń,52.25945349529,15.89568303348
26161,Babimost,52.16850193898,15.81518693923
26211,Nowy Tomyśl,52.30412409838,16.13304662706
262848,Lublin Zachodni,51.21886871976,22.50866684061
26500,Skwierzyna,52.59049577374,15.49964522587
265126,Pyrzowice Lotnisko,50.46823696385,19.07596170366
265251,Chabówka Stadion,49.5898110925,19.92032110155
26708,Międzyrzecz,52.44527366544,15.59291895114
27201,Opalenica,52.30964531078,16.39967456997
273,Szczecin Główny,53.41848158335,14.54975301866
27300,Sulechów,52.0925649714,15.61831231824
27805,Zielona Góra Główna,51.94743950846,15.51348489897
279915,Zator Park Rozrywki,50.00540147057,19.4053396529
279919,Białystok Zielone Wzgórza,53.11686060601,23.1054335779
280397,Szczebrzeszyn,50.68085834288,22.98769263267
280603,Kraków Piastów,50.1069994668,20.01287840718
28100,Świebodzin,52.24530528201,15.54018141065
28472,Swarzędz,52.40418947752,17.0736819452
28803,Szamotuły,52.60283919382,16.58667754389
28969,Wronki,52.70508207887,16.38586900418
29108,Krzyż,52.87738056072,16.01794189538
29181,Dobiegniew,52.96864780224,15.74627182799
29215,Nowe Drezdenko,52.85381062199,15.83407429203
29223,Wieleń,52.90747049724,16.18013012138
29405,Choszczno,53.16524892098,15.40335939926
29645,Oborniki Wielkopolskie Miasto,52.64561481549,16.8202492644
30007,Września,52.32755673486,17.55531548381
3004,Szczecinek,53.69353652129,16.70497103387
30122,Słupca,52.28741036413,17.85207509458
30205,Środa Wielkopolska,52.21817178112,17.27455870753
30601,Poznań Główny,52.40162478054,16.91155849814
30809,Gniezno,52.52968955788,17.60357013519
32003,Mogilno,52.65857188473,17.94605076941
32201,Kutno,52.22701929483,19.34870615211
32359,Gostynin,52.43336054116,19.4761607877
32417,Płock Radziwie,52.5242193615,19.67225016071
32433,Żychlin,52.21311918462,19.61909293056
32524,Łęczyca,52.04922785545,19.19323861063
32540,Ozorków,51.97250907933,19.26593183935
32607,Płock,52.55274238269,19.71269974603
32706,Sierpc,52.84789825922,19.65378252646
32904,Łowicz Główny,52.10521690787,19.95498597086
33100,Konin,52.23132169834,18.25252889514
33191,Koło,52.21107796102,18.63200246215
33472,Warszawa Główna,52.22514314412,20.98546389815
33506,Warszawa Zachodnia,52.21995562238,20.96576919014
33563,Warszawa Służewiec,52.18086526898,20.98701819241
33571,Warszawa Śródmieście,52.22938671429,21.00759854233
33605,Warszawa Centralna,52.22884143194,21.0032749828
33902,Piaseczno,52.06656150582,21.01725960979
34165,Grodzisk Mazowiecki,52.11021993141,20.62252647354
34207,Żyrardów,52.05234533554,20.44856070399
34603,Sochaczew,52.21517565534,20.23901892527
3467,Runowo Pomorskie,53.55566783884,15.52945065248
3509,Łobez,53.63665778088,15.62768048243
3517,Chociwel,53.47076432765,15.33607448192
36103,Warszawa Gdańska,52.25911858243,20.99311973016
3632,Świdwin,53.78111392914,15.77274066944
36343,Wołomin,52.34664299751,21.23811721265
36459,Nowy Dwór Mazowiecki,52.42529479678,20.72381501454
36509,Legionowo,52.40140810951,20.94165234261
36939,Ciechanów,52.88339915431,20.59131914352
37226,Mława,53.12646126612,20.35064938756
37507,Tłuszcz,52.4311589486,21.43562146165
37911,Łochów,52.53397373547,21.68755579762
38307,Małkinia,52.69415895659,22.03357172883
38653,Warszawa Wschodnia,52.25143798823,21.05225084066
38885,Otwock,52.10961288372,21.26300835582
39008,Mińsk Mazowiecki,52.17586935636,21.55245601594
3905,Białogard,54.00994582961,15.97770929606
39206,Pilawa,51.95562237451,21.53356362698
39404,Siedlce,52.16181364664,22.27167427003
39743,Niemojki,52.25866465828,22.70130330423
39776,Sarnaki,52.32522762664,22.87979228703
39875,Mrozy,52.16419810829,21.80148861111
39909,Łuków,51.9410027565,22.39151672618
39974,Radzyń Podlaski,51.82712515124,22.66861437678
40030,Parczew,51.62622126255,22.87159169588
40345,Góra Kalwaria,51.98927746226,21.19313725529
40808,Biała Podlaska,52.02033370388,23.1305732068
40832,Międzyrzec Podlaski,51.97602474764,22.7854278251
40949,Chotyłów,51.99684579892,23.3558781676
40998,Terespol,52.07398543681,23.60112306555
4101,Kołobrzeg,54.18224244455,15.57084203011
4135,Ustronie Morskie,54.20030545011,15.74765922422
42002,Nowa Sól,51.79912167571,15.70874382983
42200,Głogów,51.66967512769,16.07957260999
42606,Leszno,51.84588963258,16.56545428391
43406,Kościan,52.07887930382,16.6419466574
44008,Krotoszyn,51.70152870299,17.42615102649
4408,Koszalin,54.19039460958,16.16960647928
44305,Rawicz,51.60877741913,16.83979934136
44420,Żmigród,51.47485191109,16.90180355369
44701,Jarocin,51.96872297641,17.49468683124
44842,Pleszew,51.89250513527,17.73247445481
45245,Kalisz,51.74278329437,18.07118445486
45401,Kępno,51.29195579895,18.00141915717
45476,Ostrzeszów,51.4296015581,17.94054666434
45617,Wieruszów Miasto,51.29912719792,18.16577552676
45682,Wieluń,51.22344251522,18.5826561733
45906,Ostrów Wielkopolski,51.6496675147,17.80517738591
46409,Łódź Widzew,51.76321082812,19.54318695347
46458,Łódź Fabryczna,51.76956162252,19.46956420169
46565,Łódź Chojny,51.72641334627,19.48432155992
46581,Pabianice,51.66080053969,19.32482150618
46649,Łask,51.60372042378,19.11212892399
46706,Łódź Kaliska,51.75786647986,19.42983100106
46789,Łódź Żabieniec,51.79352425398,19.40702408284
46805,Zgierz,51.84930968801,19.42559837759
46862,Głowno,51.96142588689,19.70289864418
47001,Skierniewice,51.96730420328,20.15043398413
4705,Słupsk,54.46771196624,17.01648113966
47258,Koluszki,51.74339815459,19.81837887943
47316,Rogów,51.81805249261,19.88621943834
47605,Tomaszów Mazowiecki,51.54681097307,20.03376730833
47704,Piotrków Trybunalski,51.41082312766,19.68475819874
47829,Gorzkowice,51.21824108365,19.60311984414
47886,Radomsko,51.07473698255,19.43759879597
48009,Skarżysko-Kamienna,51.11591040278,20.88136602447
48181,Starachowice Wschodnie,51.04173127118,21.07907576336
48355,Radom Główny,51.39107956687,21.1559020539
48504,Warka,51.79312701868,21.16958188228
48736,Pionki Zachodnie,51.47189826741,21.44120349934
48801,Przysucha,51.37805592715,20.6587555324
48827,Drzewica,51.43699538572,20.46566942328
48959,Opoczno Południe,51.35914690831,20.23239611506
49205,Ostrowiec Świętokrzyski,50.93359476679,21.37783609799
4952,Ustka,54.57873708694,16.86106249282
49809,Dęblin,51.57814967532,21.83430789828
50021,Puławy Miasto,51.42721669507,21.98475355656
50104,Nałęczów,51.31807269238,22.21296795595
50484,Świdnik Miasto,51.22379900765,22.69500085715
50500,Lublin Główny,51.23135643241,22.56920429158
50609,Lubartów,51.44553685262,22.60821456346
50807,Rejowiec,51.11755257754,23.23950290941
50906,Chełm,51.14124000061,23.49326282389
50948,Chełm Miasto,51.13799468398,23.45814500337
5108,Sławno,54.3556494354,16.66879392961
51102,Dorohusk,51.17210046763,23.78424703807
51177,Krasnystaw Miasto,50.98511134643,23.18297937705
51508,Kraśnik,50.92946229381,22.2834988062
51805,Węgliniec,51.29011852119,15.22298410229
51847,Zgorzelec,51.14017520146,15.00337796417
51862,Zgorzelec Miasto,51.15461801471,15.0201610086
51946,Pieńsk,51.24537151725,15.04706640608
5256,Lębork,54.53362086617,17.75043008566
53009,Legnica,51.21400115827,16.16883872867
53280,Lubin,51.3961934329,16.19368671298
53850,Bolesławiec,51.26609729848,15.56960104823
54007,Chojnów,51.27768932412,15.93743919253
54403,Jaworzyna Śląska,50.91252237851,16.42891994556
54528,Świebodzice,50.86019406371,16.33289737096
54551,Wałbrzych Miasto,50.78576642799,16.2850159353
54817,Świdnica Miasto,50.84112363519,16.48150919795
54908,Dzierżoniów Śląski,50.72441634844,16.64071171403
55103,Wałbrzych Główny,50.74332995856,16.28095583203
55145,Jedlina-Zdrój,50.71155241729,16.34301602304
55632,Sędzisław,50.81340553575,16.06981221998
55806,Jelenia Góra,50.90260149015,15.7559269735
56093,Jelenia Góra Cieplice,50.86977982131,15.68550465382
56143,Piechowice,50.85170662987,15.59147073651
56168,Szklarska Poręba Dolna,50.8483479237,15.55694243247
56176,Szklarska Poręba Średnia,50.83845500292,15.54002090289
56184,Szklarska Poręba Górna,50.83266886434,15.51872596693
56408,Kamieniec Ząbkowicki,50.53616772711,16.89894453563
56424,Ziębice,50.60848803375,17.03393188032
56606,Nysa,50.47777011314,17.34184774757
56697,Otmuchów,50.47412628018,17.15278337229
56713,Paczków,50.47840993325,17.01118203309
56903,Prudnik,50.32914061399,17.57744390754
57208,Międzylesie,50.1438861506,16.65494457652
57307,Kłodzko Główne,50.45087592085,16.65718329867
57414,Bystrzyca Kłodzka,50.29688207324,16.65502146178
57463,Kłodzko Miasto,50.43543140434,16.65855831741
57497,Polanica Zdrój,50.39763084631,16.51362060428
57513,Szczytna,50.40839787617,16.44974111974
57521,Duszniki-Zdrój,50.40912607558,16.38563095987
57554,Kudowa-Zdrój,50.42973323862,16.24423026502
57703,Ząbkowice Śląskie,50.59734287465,16.81274055362
57943,Nowa Ruda,50.57730950515,16.49680852354
58271,Oława,50.9309804404,17.29699599133
58651,Wrocław Mikołajów,51.11606147634,16.99832434517
58784,Oborniki Śląskie,51.29940096999,16.90740536845
5900,Gdynia Główna,54.5208668893,18.52902918993
59105,Wrocław Nadodrze,51.12578939882,17.03263905435
5942,Sopot,54.43995694985,18.56235946849
59543,Grabowno Wielkie,51.34324786074,17.40346503844
59576,Oleśnica Rataje,51.21584759927,17.36443823223
59675,Milicz,51.52726897144,17.29508756518
59808,Strzelin,50.7846554663,17.06033877261
60103,Wrocław Główny,51.09791807899,17.03743373155
60269,Brzeg Dolny,51.26671570629,16.7255035535
60335,Wołów,51.33371086352,16.63311674999
60400,Ścinawa,51.4091782138,16.42173497635
60608,Opole Główne,50.66165452034,17.92718170047
6098,Rumia,54.56902057926,18.38674911037
61200,Kluczbork,50.97091882626,18.20111780793
61341,Byczyna Kluczborska,51.11371109591,18.1998799207
61572,Ozimek,50.67000478647,18.20859612165
61705,Strzelce Opolskie,50.51671187049,18.3065966348
61903,Gogolin,50.49288100669,18.01886108457
62109,Brzeg,50.85303562693,17.47054393643
62653,Częstochowa,50.80863803089,19.12097955749
62802,Częstochowa Stradom,50.7972075927,19.10762895397
6304,Wejherowo,54.60582937299,18.22962210729
63073,Koniecpol,50.77637636512,19.69978678459
63552,Kielce Główne,50.87428713415,20.61797141743
64303,Sędziszów,50.56579676406,20.05489891086
64337,Kozłów,50.47472660786,20.01194974526
64352,Klimontów,50.52526299331,20.03007016404
64451,Jędrzejów,50.64475357679,20.27593224281
64626,Tunel,50.43349907561,19.9911906973
64808,Włoszczowa,50.83775009492,20.01541304641
64899,Włoszczowa Północ,50.85670346333,19.94616149783
65003,Stalowa Wola Rozwadów,50.59132724573,22.04195261785
65029,Stalowa Wola Centrum,50.57066449887,22.05472239413
65094,Nisko,50.5141100868,22.14069776275
65144,Rudnik nad Sanem,50.43587286757,22.24895093019
65243,Zaklików,50.76843285504,22.10793206546
65300,Sandomierz,50.6605739154,21.76532525756
65466,Tarnobrzeg,50.56800523269,21.69629665688
65532,Nowa Dęba,50.41544555368,21.7398056001
65904,Zamość,50.71354997323,23.239233
66050,Zawada,50.71603303507,23.12532976323
66134,Hrubieszów Miasto,50.79696043575,23.90884100854
66142,Werbkowice,50.74553949091,23.76763342738
66407,Biłgoraj,50.55142585764,22.73176430583
66449,Tereszpol Biłgorajski,50.57453645358,22.88550852656
66589,Zwierzyniec,50.60920539748,22.98429796271
6700,Puck,54.7150832613,18.40855335582
67009,Kędzierzyn-Koźle,50.34486049756,18.20481953494
67066,Zdzieszowice,50.42184403002,18.12642853642
6734,Chałupy,54.76178380971,18.50200384789
6742,Władysławowo,54.79372147682,18.40183055687
67462,Głogówek,50.34760123367,17.87576932675
6759,Jurata,54.68544926722,18.7125494871
6767,Kuźnica (Hel),54.73645918481,18.57570659126
6775,Jastarnia,54.7017925984,18.67641617791
67900,Chałupki,49.9256534476,18.31153213441
6791,Hel,54.61110813761,18.80093927487
68205,Rybnik,50.08906167788,18.54784547746
68403,Wodzisław Śląski,50.00788382162,18.47625731349
68700,Racibórz,50.0904006231,18.2264190835
68882,Kuźnia Raciborska,50.20079191749,18.29856663931
69203,Żory,50.05308148321,18.70202421069
69708,Gliwice,50.3010996285,18.67722702764
69823,Zabrze,50.3053150488,18.78726481318
71001,Tarnowskie Góry,50.44606860005,18.86443201317
7112,Tczew,54.09745621809,18.78960368872
71407,Lubliniec,50.67289146587,18.69052512305
71555,Olesno Śląskie,50.88215511747,18.42471599042
71571,Kochanowice,50.69944205607,18.7484639828
71860,Krzepice,50.96915118418,18.69702274155
72272,Chorzów Miasto,50.29814112104,18.94838064285
72306,Bytom,50.34297500433,18.91514181018
72900,Katowice Ligota,50.22577369242,18.97786258578
7302,Pruszcz Gdański,54.25745421232,18.64679795947
73106,Chorzów Batory,50.27841150069,18.94469975352
73312,Katowice,50.25761103501,19.01740878365
73403,Sosnowiec Dańdówka,50.26552558602,19.17335746765
73502,Mysłowice,50.23809360671,19.14153662356
73700,Tychy,50.13617725106,18.96409748912
73908,Jaworzno Szczakowa,50.2463654005,19.29713104255
74500,Dąbrowa Górnicza Ząbkowice,50.36666284561,19.2648067689
74583,Dąbrowa Górnicza,50.33027882754,19.18522905484
74633,Będzin Miasto,50.31923030177,19.13555224872
74658,Sosnowiec Główny,50.27889039075,19.12631094158
7500,Gdańsk Główny,54.35643747799,18.64413141132
75309,Zawiercie,50.48108578986,19.42316494732
7534,Gdańsk Wrzeszcz,54.381951326,18.60508491696
75424,Myszków,50.57438314385,19.32880281866
75507,Zebrzydowice,49.87018235758,18.62380026698
75788,Skoczów,49.79354529741,18.79014014661
7583,Gdańsk Oliwa,54.40984425779,18.5718739534
75903,Pszczyna,49.97503751058,18.95342229724
76000,Czechowice-Dziedzice,49.91535743587,19.00664805293
76109,Bielsko-Biała Główna,49.83001185919,19.04538261071
76232,Kęty,49.88063495026,19.2262486552
76273,Andrychów,49.85582652691,19.35330458126
76604,Żywiec,49.67940358325,19.18569006906
76901,Goleszów,49.74686280831,18.74919354379
76968,Ustroń Zdrój,49.72061232694,18.81663500726
76992,Wisła Uzdrowisko,49.65836722274,18.85485112131
77057,Ustroń Polana,49.69672804322,18.83002727956
77107,Oświęcim,50.04166577323,19.20004194494
77503,Trzebinia,50.15412725631,19.45263331513
77701,Krzeszowice,50.13093009818,19.63411147213
77834,Chrzanów Śródmieście,50.1440642364,19.41376705146
78204,Wadowice,49.88519429991,19.50179830643
78345,Kalwaria Zebrzydowska Lanckorona,49.87108770433,19.68870826434
78535,Maków Podhalański,49.72682861133,19.6776473884
78709,Chabówka,49.59703816822,19.93661694549
7872,Malbork,54.03621384954,19.04257891417
78907,Nowy Targ,49.47311287611,20.01558943355
78980,Poronin,49.34315915598,20.00358871285
79020,Zakopane,49.30075799047,19.96301588666
79236,Kraków Batowice,50.10751778906,19.99543073941
79327,Zastów,50.12387082973,20.06919489425
79335,Baranówka,50.14644540741,20.09538709755
79343,Łuczyce,50.16264864332,20.07445414951
79350,Goszcza,50.18473963325,20.06117461057
79368,Niedźwiedź,50.20447268689,20.08100236335
79376,Słomniki Miasto,50.23594873408,20.07622835597
79384,Słomniki,50.24940298997,20.06372501251
79426,Smroków,50.27449824017,20.04688964
79434,Szczepanowice,50.30118033085,20.02462340113
79459,Kamieńczyce,50.32751529912,20.00562069655
79467,Miechów,50.35364233862,20.01075667005
79483,Pstroszyce,50.39901132582,20.00841410415
79657,Bochnia,49.9773503436,20.43153122078
79806,Brzesko Okocim,49.98672857214,20.60975255869
79905,Kraków Płaszów,50.03446370099,19.97543319497
80101,Skawina,49.97714043884,19.82179967402
80416,Kraków Główny,50.06861309734,19.94780299902
80630,Tarnów,50.00531942647,20.97452997647
8086,Sztum,53.92566559823,19.02113221403
80986,Tuchów,49.8920200831,21.05657293692
81067,Bogoniowice Ciężkowice,49.79826770216,20.97655155797
81125,Bobowa-Miasto,49.70818608951,20.93904963508
81208,Dębica,50.05405500371,21.40445496407
81232,Ropczyce,50.07849860682,21.58056670819
81265,Sędziszów Małopolski,50.07552395105,21.69121041341
81505,Mielec,50.29259927558,21.42967386374
8151,Elbląg,54.15089738607,19.41618997433
81604,Stróże,49.65475123367,20.97622435956
81679,Grybów,49.626085978,20.95727046809
81703,Gorlice Zagórzany,49.69416026267,21.19548618257
81786,Biecz,49.73277370969,21.26360892177
81901,Nowy Sącz,49.60638197092,20.70217668123
82032,Stary Sącz,49.55908636084,20.64342048454
82073,Rytro,49.4865413333,20.68026774404
82099,Piwniczna-Zdrój,49.44071314858,20.71738364403
82404,Muszyna,49.34599381066,20.89367409099
82446,Muszyna Zdrój,49.3579786409,20.89654897887
82487,Krynica-Zdrój,49.40965968433,20.95715117422
82552,Żegiestów-Zdrój,49.36291161155,20.80335543266
82578,Wierchomla Wielka,49.40255338727,20.75523721033
82586,Łomnica-Zdrój,49.41945420007,20.72489573541
82669,Rzeszów Główny,50.04307416499,22.00594817934
82974,Kolbuszowa,50.24608371071,21.78448994467
83022,Łańcut,50.08174555422,22.22795258547
83105,Przeworsk,50.06725141172,22.50268644933
83220,Leżajsk,50.2631651672,22.42036043068
83246,Nowa Sarzyna,50.32065517764,22.34788645327
83261,Jarosław,50.01072068252,22.67726720859
83394,Jedlicze,49.71895301381,21.64829513859
83410,Jasło,49.73760818105,21.47056255334
83501,Krosno,49.69362843372,21.74929051956
83543,Targowiska,49.64962736987,21.82176022189
83584,Wróblik Szlachecki,49.61361079118,21.87836278244
83600,Sanok,49.55275654138,22.21155719156
83725,Zarszyn,49.58419402356,22.01948210584
83758,Zagórz,49.51343861102,22.26428609352
8409,Pelplin,53.9272631663,18.70796312623
84301,Radymno,49.93949300812,22.8290715277
84400,Przemyśl Główny,49.78371640149,22.77800023019
84434,Przemyśl Zasanie,49.79333476461,22.77345105872
8474,Smętowo,53.74783147334,18.68602577636
851,Gryfino,53.25433443787,14.49291904509
8607,Starogard Gdański,53.97727723921,18.52621946272
8904,Czersk,53.80072566028,17.97056937855
8961,Czarna Woda,53.85128125876,18.10877386083
8979,Łąg,53.83092531709,18.06266191197
8995,Kaliska,53.90293194235,18.21579803925
9209,Olsztyn Główny,53.78558384702,20.49670073688
9233,Olsztyn Zachodni,53.77834031204,20.46785566044
9456,Olsztynek,53.58481033064,20.29516784826